van_precinct_id,van_precinct_name,precinct_name_doe,GEOID,Region,fo_name,county,voters,doors,targets,Current Region,county_name,Current Turf,supporters,min_lon,min_lat,max_lon,max_lat
2257730,118 - Precinct 118,PRECINCT 118,51013000118,R01,R01B - Arlington,ARLINGTON,6788,6336,2165,R01,ARLINGTON,R01B - Arlington,2165,-77.0912530002208,38.8865759997956,-77.0780000003239,38.896361000292
1071009,332 - Coates,COATES,51059000332,R02,R02F - Herndon,FAIRFAX,7112,6205,2092,R02,FAIRFAX,R02F - Herndon,2092,-77.4322129321206,38.9412948867083,-77.3904993088646,38.962189578842
2257679,119 - Precinct 119,PRECINCT 119,51013000119,R01,R01B - Arlington,ARLINGTON,5688,5244,1818,R01,ARLINGTON,R01B - Arlington,1818,-77.0820619996807,38.8889650000207,-77.0641609997229,38.90113000028
295994,132 - Monument,MONUMENT,51059000132,R02,R02D - Fair Oaks,FAIRFAX,5713,4674,1616,R02,FAIRFAX,R02D - Fair Oaks,1616,-77.3647074796033,38.8496875279613,-77.3332506666494,38.862361355884
2257747,146 - Precinct 146,PRECINCT 146,51013000146,R01,R01C - Ballston,ARLINGTON,4753,4501,1595,R01,ARLINGTON,R01C - Ballston,1595,-77.1127040002477,38.8798909997629,-77.1041310001989,38.886107999811
2257754,140 - Precinct 140,PRECINCT 140,51013000140,R01,R01E - Clarendon,ARLINGTON,4935,4516,1567,R01,ARLINGTON,R01E - Clarendon,1567,-77.1083089999066,38.8812260001817,-77.0962159999261,38.8961080000688
295962,726 - Magarity,MAGARITY,51059000726,R02,R02G - McLean,FAIRFAX,5517,4708,1559,R02,FAIRFAX,R02G - McLean,1559,-77.2178628975493,38.9093690732061,-77.1965451275605,38.9310684909817
296015,926 - Powell,POWELL,51059000926,R02,R02B - Centreville,FAIRFAX,5152,3419,1568,R02,FAIRFAX,R02B - Centreville,1568,-77.4321238291259,38.8387239563454,-77.4019921794382,38.8517253640708
1848143,110 - Charles Houston Center,Charles Houston Center,51510000110,R01,R01A - Alexandria,ALEXANDRIA CITY,4972,4517,1532,R01,ALEXANDRIA CITY,R01A - Alexandria,1532,-77.054834000537,38.8096129997737,-77.045024000579,38.8203850001542
295838,237 - McNair,MCNAIR,51059000237,R02,R02F - Herndon,FAIRFAX,4949,4113,1531,R02,FAIRFAX,R02F - Herndon,1531,-77.4129392794592,38.9426388972371,-77.3884362236101,38.9541259234101
2257717,110 - Precinct 110,PRECINCT 110,51013000110,R01,R01B - Arlington,ARLINGTON,5303,4881,1505,R01,ARLINGTON,R01B - Arlington,1505,-77.0848100000338,38.8649919997269,-77.0435230001809,38.8949310003427
295950,708 - Marshall,MARSHALL,51059000708,R02,R02G - McLean,FAIRFAX,4520,3679,1227,R02,FAIRFAX,R02G - McLean,1227,-77.2181843336226,38.8888841649712,-77.1899129008521,38.9104345695848
295818,208 - Reston #1,RESTON #1,51059000208,R02,R02H - Reston,FAIRFAX,5199,4445,1435,R02,FAIRFAX,R02H - Reston,1435,-77.3563207667882,38.9466480971425,-77.3331718448731,38.9711949520005
295961,721 - Merrifield,MERRIFIELD,51059000721,R02,R02C - East Fairfax,FAIRFAX,4726,4189,1414,R02,FAIRFAX,R02C - East Fairfax,1414,-77.2467758900276,38.8653853272226,-77.2269093519736,38.8831794106157
295990,848 - Fair Oaks,FAIR OAKS,51059000848,R02,R02D - Fair Oaks,FAIRFAX,4709,3208,1400,R02,FAIRFAX,R02D - Fair Oaks,1400,-77.4048387231812,38.8400617162918,-77.3629815186001,38.8588913091626
297247,104 - Cooper,Cooper,51650000104,R08,R08A - Hampton,HAMPTON CITY,5985,5171,1394,R08,HAMPTON CITY,R08A - Hampton,1394,-76.4053946491276,37.0404600769018,-76.3769946180327,37.0704454361923
296008,918 - Centreville,CENTREVILLE,51059000918,R02,R02B - Centreville,FAIRFAX,5452,4051,1388,R02,FAIRFAX,R02B - Centreville,1388,-77.4364434895607,38.8271787605069,-77.4048431833166,38.8400026156217
2257705,704 - Poole,Poole,51179000704,R04,R04E - HD 64,STAFFORD,5808,3572,1378,R04,STAFFORD,R04E - HD 64,1378,-77.4562743420401,38.4218940766839,-77.4208203422789,38.459535077144
2257676,141 - Precinct 141,PRECINCT 141,51013000141,R01,R01E - Clarendon,ARLINGTON,4186,3889,1354,R01,ARLINGTON,R01E - Clarendon,1354,-77.0886549996556,38.8845799999594,-77.083157000198,38.8917449997527
297272,210 - MacHen,Machen,51650000210,R08,R08F - Port Warwick,HAMPTON CITY,5678,4193,1364,R08,HAMPTON CITY,R08F - Port Warwick,1364,-76.4275871679974,37.048478097263,-76.3683709916295,37.0959054321098
295933,617 - Lorton,LORTON,51059000617,R04,R04I - Woodbridge,FAIRFAX,4433,3146,1348,R04,FAIRFAX,R04I - Woodbridge,1348,-77.2450402874549,38.6668536729312,-77.1929959844843,38.709904036955
1594345,119 - Arcola,ARCOLA,51107000119,R03,R03G - South Riding,LOUDOUN,5015,3680,1344,R03,LOUDOUN,R03G - South Riding,1344,-77.569037117099,38.9292619606952,-77.5183042943044,38.9562004818824
295944,701 - Blake,BLAKE,51059000701,R02,R02I - Vienna,FAIRFAX,5267,3959,1326,R02,FAIRFAX,R02I - Vienna,1326,-77.3089439995894,38.8631974434814,-77.2831178304297,38.8827602244094
892243,238 - Cameron Glen,CAMERON GLEN,51059000238,R02,R02H - Reston,FAIRFAX,5203,4420,1301,R02,FAIRFAX,R02H - Reston,1301,-77.3741807936877,38.9519104400807,-77.3515347504653,38.9671580846231
2257714,150 - Precinct 150,PRECINCT 150,51013000150,R01,R01F - Crystal City,ARLINGTON,4185,3938,1309,R01,ARLINGTON,R01F - Crystal City,1309,-77.0557380003602,38.8392810000807,-77.0322240004187,38.8717859997244
295912,526 - Bren Mar,BREN MAR,51059000526,R02,R02A - Annandale,FAIRFAX,4370,3518,1319,R02,FAIRFAX,R02A - Annandale,1319,-77.1735052593243,38.7927463506712,-77.1398632468311,38.8132219187231
296003,913 - Rocky Run,ROCKY RUN,51059000913,R02,R02B - Centreville,FAIRFAX,5317,3060,1322,R02,FAIRFAX,R02B - Centreville,1322,-77.4487441315259,38.852185440385,-77.4075542251822,38.88193422473
295881,420 - Villages,VILLAGES,51059000420,R04,R04G - Franconia,FAIRFAX,5175,3880,1317,R04,FAIRFAX,R04G - Franconia,1317,-77.1674149422094,38.7401847084918,-77.1239085744971,38.7734005136445
295937,622 - Lorton Station,LORTON STATION,51059000622,R04,R04I - Woodbridge,FAIRFAX,4475,3326,1301,R04,FAIRFAX,R04I - Woodbridge,1301,-77.2240811374556,38.7012801980447,-77.1970977621401,38.7212680901488
295969,733 - Kilmer,KILMER,51059000733,R02,R02I - Vienna,FAIRFAX,5019,3469,1285,R02,FAIRFAX,R02I - Vienna,1285,-77.2428177763419,38.8906660534612,-77.2149506061106,38.9118303101115
1992185,211 - Alex Renew,Alex Renew,51510000211,R01,R01A - Alexandria,ALEXANDRIA CITY,4058,3675,1283,R01,ALEXANDRIA CITY,R01A - Alexandria,1283,-77.0774749997191,38.7947078159498,-77.0597850005467,38.8050590001321
2257698,109 - Precinct 109,PRECINCT 109,51013000109,R01,R01D - Barcroft,ARLINGTON,4424,3845,1286,R01,ARLINGTON,R01D - Barcroft,1286,-77.0939339997283,38.8467339996832,-77.0693300001908,38.8635759997871
295966,856 - Penderbrook,PENDERBROOK,51059000856,R02,R02D - Fair Oaks,FAIRFAX,4297,3300,1282,R02,FAIRFAX,R02D - Fair Oaks,1282,-77.3695897297477,38.8565673773995,-77.3283683841657,38.8812932839781
296009,919 - Green Trails,GREEN TRAILS,51059000919,R02,R02B - Centreville,FAIRFAX,4979,3322,1270,R02,FAIRFAX,R02B - Centreville,1270,-77.4487206082419,38.8088621029971,-77.4186802408617,38.829544254086
295920,604 - Bucknell,BUCKNELL,51059000604,R04,R04C - Groveton,FAIRFAX,4817,3860,1279,R04,FAIRFAX,R04C - Groveton,1279,-77.0841860113728,38.7495294233457,-77.060945031904,38.7723298095848
296001,910 - London Towne,LONDON TOWNE,51059000910,R02,R02B - Centreville,FAIRFAX,4513,3289,1285,R02,FAIRFAX,R02B - Centreville,1285,-77.4660114239498,38.8331405343447,-77.4476362123366,38.8504252482923
2257761,108 - Precinct 108,PRECINCT 108,51013000108,R01,R01B - Arlington,ARLINGTON,4477,4103,1275,R01,ARLINGTON,R01B - Arlington,1275,-77.0693300001908,38.8531530001697,-77.054245000358,38.8672269999358
295996,902 - Brookfield,BROOKFIELD,51059000902,R02,R02B - Centreville,FAIRFAX,4775,3327,1264,R02,FAIRFAX,R02B - Centreville,1264,-77.4492387169719,38.8772420141299,-77.4056805425188,38.8975071194238
295680,210 - Five Forks,Five Forks,51041000210,R07,R07F - South Chesterfield,CHESTERFIELD,5304,3418,1266,R07,CHESTERFIELD,R07F - South Chesterfield,1266,-77.5914484152663,37.3934330923597,-77.5016189251317,37.4469564632414
295873,410 - Rose Hill,ROSE HILL,51059000410,R04,R04G - Franconia,FAIRFAX,5273,3719,1271,R04,FAIRFAX,R04G - Franconia,1271,-77.1359699951021,38.7660351079963,-77.0932730759362,38.7893283927654
297097,106 - Cora Kelly,Cora Kelly Center,51510000106,R01,R01F - Crystal City,ALEXANDRIA CITY,4801,4188,1255,R01,ALEXANDRIA CITY,R01F - Crystal City,1255,-77.077186999839,38.8307970006739,-77.0511979993559,38.8446264051879
297112,304 - Tucker School,Samuel Tucker School,51510000304,R01,R01I - Westend Alexandria,ALEXANDRIA CITY,4298,3941,1250,R01,ALEXANDRIA CITY,R01I - Westend Alexandria,1250,-77.1339889996949,38.8042509999488,-77.1205929996829,38.8143969998462
2257758,153 - Precinct 153,PRECINCT 153,51013000153,R01,R01F - Crystal City,ARLINGTON,3956,3721,1241,R01,ARLINGTON,R01F - Crystal City,1241,-77.0597810003487,38.8597009998021,-77.0515520002566,38.8661830002686
295872,409 - Pioneer,PIONEER,51059000409,R04,R04G - Franconia,FAIRFAX,4512,3291,1250,R04,FAIRFAX,R04G - Franconia,1250,-77.1917328382104,38.7374323666267,-77.137554491211,38.8007646327413
1991023,215 - Two Hundred Fifteen,Two Hundred Fifteen,51760000215,R06,R06C - Highland Park,RICHMOND CITY,3587,3461,1250,R06,RICHMOND CITY,R06C - Highland Park,1250,-77.4835966526105,37.5567516636355,-77.4601370124218,37.5838858415206
2228459,316 - Potomac Shores,Potomac Shores,51153000316,R04,R04B - Dumfries,PRINCE WILLIAM,3837,2686,1249,R04,PRINCE WILLIAM,R04B - Dumfries,1249,-77.2961660000688,38.5469129992918,-77.2567448576549,38.5884387392143
295677,207 - Chippenham,Chippenham,51041000207,R07,R07E - North Chesterfield,CHESTERFIELD,5055,3633,1243,R07,CHESTERFIELD,R07E - North Chesterfield,1243,-77.5362100454518,37.4158514908018,-77.4854746408991,37.4632373393888
295878,417 - Garfield,GARFIELD,51059000417,R04,R04H - West Springfield,FAIRFAX,4457,3000,1242,R04,FAIRFAX,R04H - West Springfield,1242,-77.2081642006517,38.7400724120675,-77.1809135980988,38.7791531482597
295856,320 - Herndon #2,HERNDON #2,51059000320,R02,R02F - Herndon,FAIRFAX,4745,3355,1236,R02,FAIRFAX,R02F - Herndon,1236,-77.413532764028,38.9609330128907,-77.3830584528735,38.9842916818825
297323,102 - Stoney Run,Stoney Run,51700000102,R08,R08E - Nicewood,NEWPORT NEWS CITY,5027,3991,1227,R08,NEWPORT NEWS CITY,R08E - Nicewood,1227,-76.5573077259475,37.129746083635,-76.5306893338285,37.1544960826135
295794,106 - Heritage,HERITAGE,51059000106,R02,R02A - Annandale,FAIRFAX,4361,3547,1201,R02,FAIRFAX,R02A - Annandale,1201,-77.2224485922588,38.8113972684566,-77.2074526343354,38.8343199905315
295883,422 - Van Dorn,VAN DORN,51059000422,R04,R04G - Franconia,FAIRFAX,4254,3245,1210,R04,FAIRFAX,R04G - Franconia,1210,-77.156619710472,38.7799275082223,-77.1353029573761,38.7965382617803
297348,219 - Deer Park,Deer Park,51700000219,R08,R08F - Port Warwick,NEWPORT NEWS CITY,5070,4421,1199,R08,NEWPORT NEWS CITY,R08F - Port Warwick,1199,-76.4941113332377,37.070397083463,-76.4591633338148,37.1039110833336
295825,220 - Dogwood,DOGWOOD,51059000220,R02,R02D - Fair Oaks,FAIRFAX,4933,3526,1215,R02,FAIRFAX,R02D - Fair Oaks,1215,-77.3932254037995,38.9269974369205,-77.3563207667882,38.9537900410072
2257764,104 - Precinct 104,PRECINCT 104,51013000104,R01,R01C - Ballston,ARLINGTON,4063,3412,1189,R01,ARLINGTON,R01C - Ballston,1189,-77.1296210000163,38.8683970000596,-77.1112580001011,38.8854019999294
975950,515 - Rolfe,Rolfe,51087000515,R07,R07A - East,HENRICO,3898,2625,1189,R07,HENRICO,R07A - East,1189,-77.404221087406,37.4678860005889,-77.3649270000109,37.496750963076
2257721,128 - Precinct 128,PRECINCT 128,51013000128,R01,R01H - Shirlington,ARLINGTON,4209,3403,1188,R01,ARLINGTON,R01H - Shirlington,1188,-77.1210391596469,38.8418937105636,-77.0962059998803,38.8562210003361
295889,501 - Baileys,BAILEYS,51059000501,R02,R02A - Annandale,FAIRFAX,4120,3260,1180,R02,FAIRFAX,R02A - Annandale,1180,-77.1456532724179,38.8322396442311,-77.1215493784737,38.8500827646666
297717,001 - Stryker,STRYKER,51830000001,R11,R11C - HD 71,WILLIAMSBURG CITY,5522,4596,1167,R11,WILLIAMSBURG CITY,R11C - HD 71,1167,-76.7409515415803,37.2656288452665,-76.6783680941502,37.310133092488
2257728,116 - Precinct 116,PRECINCT 116,51013000116,R01,R01E - Clarendon,ARLINGTON,4107,3482,1155,R01,ARLINGTON,R01E - Clarendon,1155,-77.1010260003688,38.8839789999531,-77.0861609997457,38.8980249997557
295997,903 - Cub Run,CUB RUN,51059000903,R02,R02B - Centreville,FAIRFAX,5209,3496,1146,R02,FAIRFAX,R02B - Centreville,1146,-77.4637997034483,38.8540002371992,-77.4382304937823,38.8781964836316
295812,127 - Burke Centre,BURKE CENTRE,51059000127,R04,R04H - West Springfield,FAIRFAX,5032,3436,1139,R04,FAIRFAX,R04H - West Springfield,1139,-77.3030847776746,38.7837546739828,-77.2733525396235,38.7984147854846
295860,324 - Herndon #3,HERNDON #3,51059000324,R02,R02F - Herndon,FAIRFAX,4430,3441,1134,R02,FAIRFAX,R02F - Herndon,1134,-77.4032980001796,38.953249134333,-77.3653002607913,38.9697538242911
297274,212 - Bethel,Bethel,51650000212,R08,R08F - Port Warwick,HAMPTON CITY,4418,2828,1139,R08,HAMPTON CITY,R08F - Port Warwick,1139,-76.4504450070143,37.0423423707789,-76.4271789070569,37.063232702539
2257694,124 - Precinct 124,PRECINCT 124,51013000124,R01,R01G - Lee Heights,ARLINGTON,4364,3270,1128,R01,ARLINGTON,R01G - Lee Heights,1128,-77.1305590001748,38.8851540001917,-77.1140159996016,38.8985730000758
297401,309 - Norview,Norview,51710000309,R10,R10E - Norfolk Central,NORFOLK CITY,5121,3969,1133,R10,NORFOLK CITY,R10E - Norfolk Central,1133,-76.2546039988976,36.8804827121783,-76.229082999118,36.9033810006536
297297,201 - Second Ward First Precinct,Ward II Precinct 1,51680000201,R13,R13E - Lynchburg,LYNCHBURG CITY,5321,4344,1136,R13,LYNCHBURG CITY,R13E - Lynchburg,1136,-79.1901157369709,37.4019547998569,-79.1382497056151,37.4424258180826
297532,707 - Seven Hundred Seven,Seven Hundred Seven,51760000707,R07,R07D - Rocketts Landing,RICHMOND CITY,3870,3386,1126,R07,RICHMOND CITY,R07D - Rocketts Landing,1126,-77.4234071839716,37.523215840794,-77.4036046922041,37.540502313433
296732,702 - Library,Library,51153000702,R04,R04I - Woodbridge,PRINCE WILLIAM,3875,3172,1130,R04,PRINCE WILLIAM,R04I - Woodbridge,1130,-77.292778999308,38.621037998335,-77.270678999726,38.6445360002962
295808,123 - Robinson,ROBINSON,51059000123,R02,R02C - East Fairfax,FAIRFAX,5127,3217,1130,R02,FAIRFAX,R02C - East Fairfax,1130,-77.30884965762,38.8106049127697,-77.273980102681,38.8266574106264
2228438,432 - Edison #2,EDISON #2,51059000432,R04,R04G - Franconia,FAIRFAX,3812,3001,1136,R04,FAIRFAX,R04G - Franconia,1136,-77.1652001422831,38.7637444378068,-77.1399783201207,38.7831711393192
892249,602 - Beville,Beville,51153000602,R04,R04A - Dale City,PRINCE WILLIAM,3957,2545,1131,R04,PRINCE WILLIAM,R04A - Dale City,1131,-77.3691950001304,38.645483999947,-77.3435140005172,38.6729969994771
1569568,428 - Pinewood,PINEWOOD,51059000428,R04,R04C - Groveton,FAIRFAX,3788,2867,1124,R04,FAIRFAX,R04C - Groveton,1124,-77.1167211997229,38.7270783839478,-77.1003097062191,38.7456058180483
2257709,126 - Precinct 126,PRECINCT 126,51013000126,R01,R01D - Barcroft,ARLINGTON,3934,3425,1133,R01,ARLINGTON,R01D - Barcroft,1133,-77.0899519998392,38.8625709996649,-77.0734660000657,38.8753649997765
296255,315 - Tucker,Tucker,51087000315,R06,R06G - West Henrico,HENRICO,4612,4091,1136,R06,HENRICO,R06G - West Henrico,1136,-77.5742349993016,37.6242609991201,-77.5344220000827,37.6440729992984
295829,224 - South Lakes,SOUTH LAKES,51059000224,R02,R02D - Fair Oaks,FAIRFAX,5086,3982,1122,R02,FAIRFAX,R02D - Fair Oaks,1122,-77.3591657878869,38.9284297267507,-77.3214937722307,38.9519104400807
295830,225 - Hughes,HUGHES,51059000225,R02,R02D - Fair Oaks,FAIRFAX,4534,3646,1119,R02,FAIRFAX,R02D - Fair Oaks,1119,-77.3636515719705,38.9298817207575,-77.3451088281501,38.9489995626866
295923,607 - Huntington,HUNTINGTON,51059000607,R04,R04C - Groveton,FAIRFAX,3463,3075,897,R04,FAIRFAX,R04C - Groveton,897,-77.0805051519197,38.7812840988308,-77.063543593018,38.7984468062611
1992183,315 - Williams,Williams,51153000315,R04,R04B - Dumfries,PRINCE WILLIAM,3591,2630,1113,R04,PRINCE WILLIAM,R04B - Dumfries,1113,-77.3227500005786,38.573658999767,-77.2994929996567,38.5935629997192
297098,107 - Mt Vernon Recreation Center,Mount Vernon Recreation Center,51510000107,R01,R01F - Crystal City,ALEXANDRIA CITY,4812,3781,1100,R01,ALEXANDRIA CITY,R01F - Crystal City,1100,-77.0675889995931,38.8240790005617,-77.0504119995335,38.8383800001681
295803,118 - Lake Braddock,LAKE BRADDOCK,51059000118,R02,R02C - East Fairfax,FAIRFAX,4538,3017,1103,R02,FAIRFAX,R02C - East Fairfax,1103,-77.301500239345,38.7964671066191,-77.2657588469649,38.817418778374
296236,223 - Ratcliffe,Ratcliffe,51087000223,R06,R06C - Highland Park,HENRICO,4033,3111,1106,R06,HENRICO,R06C - Highland Park,1106,-77.4152230744908,37.5579179266535,-77.3754169994861,37.584930000589
296002,911 - Navy,NAVY,51059000911,R02,R02D - Fair Oaks,FAIRFAX,4398,2698,1097,R02,FAIRFAX,R02D - Fair Oaks,1097,-77.3964783148343,38.8684984289961,-77.3646359045364,38.8993953463782
296420,509 - Tolbert,TOLBERT,51107000509,R03,R03D - Leesburg,LOUDOUN,4715,3202,1096,R03,LOUDOUN,R03D - Leesburg,1096,-77.5465971375213,39.0837336693207,-77.5074022331168,39.1139406905997
1569617,610 - Fitzgerald,Fitzgerald,51153000610,R04,R04A - Dale City,PRINCE WILLIAM,3709,2703,1088,R04,PRINCE WILLIAM,R04A - Dale City,1088,-77.3325039995617,38.6109999997726,-77.2927330001756,38.6319340005954
297105,205 - Douglas MacArthur School,Douglas MacArthur School,51510000205,R01,R01A - Alexandria,ALEXANDRIA CITY,4245,3320,1094,R01,ALEXANDRIA CITY,R01A - Alexandria,1094,-77.0912199997105,38.8008099995504,-77.0609219999984,38.8174159996914
296007,917 - Stone,STONE,51059000917,R02,R02B - Centreville,FAIRFAX,4305,2986,1080,R02,FAIRFAX,R02B - Centreville,1080,-77.4576974180789,38.8364639496444,-77.4321238291259,38.8628950522026
297108,208 - Nova Arts Center,NOVA Arts Center,51510000208,R01,R01H - Shirlington,ALEXANDRIA CITY,3417,3192,1081,R01,ALEXANDRIA CITY,R01H - Shirlington,1081,-77.1147129997356,38.8330923603715,-77.0978300003021,38.8434200001216
2302179,714 - Rock Ridge,ROCK RIDGE,51107000714,R03,R03G - South Riding,LOUDOUN,3544,2055,1086,R03,LOUDOUN,R03G - South Riding,1086,-77.5178158793861,38.9572497043995,-77.4879368880586,38.994473778658
295819,209 - Reston #2,RESTON #2,51059000209,R02,R02H - Reston,FAIRFAX,4563,3500,1082,R02,FAIRFAX,R02H - Reston,1082,-77.3377713305189,38.9442715502383,-77.3088763842963,38.9756744674589
1824853,710 - Powells Creek,Powells Creek,51153000710,R04,R04B - Dumfries,PRINCE WILLIAM,3652,2795,1083,R04,PRINCE WILLIAM,R04B - Dumfries,1083,-77.3058879992648,38.5859080004863,-77.2851456551949,38.6014879997688
297237,301 - Precinct 1 - District Three,Precinct 1 - District Three,51630000301,R05,R05B - HD 65,FREDERICKSBURG CITY,5573,4252,1081,R05,FREDERICKSBURG CITY,R05B - HD 65,1081,-77.505786529535,38.2701532092446,-77.4676410002145,38.3066954906996
296738,708 - River Oaks,River Oaks,51153000708,R04,R04B - Dumfries,PRINCE WILLIAM,3857,2922,1088,R04,PRINCE WILLIAM,R04B - Dumfries,1088,-77.3090169993844,38.5752960003387,-77.2838699996986,38.5942099997534
295943,628 - Laurel Hill #1,LAUREL HILL #1,51059000628,R04,R04F - Lake Ridge,FAIRFAX,3635,2228,1086,R04,FAIRFAX,R04F - Lake Ridge,1086,-77.2407355417004,38.7046384784775,-77.2085383633406,38.7234562627692
892250,409 - Tyler,Tyler,51153000409,R03,R03B - HD 21,PRINCE WILLIAM,5164,3505,1084,R03,PRINCE WILLIAM,R03B - HD 21,1084,-77.6791679999537,38.7960399998278,-77.5987330003306,38.8215730004451
297109,209 - James K Polk School,James K Polk School,51510000209,R01,R01I - Westend Alexandria,ALEXANDRIA CITY,4436,3486,1081,R01,ALEXANDRIA CITY,R01I - Westend Alexandria,1081,-77.1283370002515,38.8139380000232,-77.1066009998193,38.8300659999037
297402,310 - Rosemont,Rosemont,51710000310,R10,R10E - Norfolk Central,NORFOLK CITY,4205,3395,1085,R10,NORFOLK CITY,R10E - Norfolk Central,1085,-76.2566330002736,36.8971740001293,-76.2283490009707,36.9161341179976
295911,525 - Walnut Hill,WALNUT HILL,51059000525,R02,R02A - Annandale,FAIRFAX,4253,3219,1075,R02,FAIRFAX,R02A - Annandale,1075,-77.2128709801767,38.8533588913397,-77.1850884770592,38.8674882212739
296961,401 - Courthouse,Courthouse,51179000401,R04,R04E - HD 64,STAFFORD,4104,2999,1084,R04,STAFFORD,R04E - HD 64,1084,-77.4224723413914,38.4203380768691,-77.3956783417176,38.4498870767548
2257737,130 - Precinct 130,PRECINCT 130,51013000130,R01,R01D - Barcroft,ARLINGTON,3530,2829,1081,R01,ARLINGTON,R01D - Barcroft,1081,-77.0985630004211,38.8422690001358,-77.0793669999294,38.8544399997836
297718,002 - Matoaka,MATOAKA,51830000002,R11,R11C - HD 71,WILLIAMSBURG CITY,5695,4711,1064,R11,WILLIAMSBURG CITY,R11C - HD 71,1064,-76.7429863900905,37.2474740296099,-76.6644647759715,37.2825365842075
295956,714 - Walker,WALKER,51059000714,R02,R02C - East Fairfax,FAIRFAX,4079,2900,1070,R02,FAIRFAX,R02C - East Fairfax,1070,-77.2670491807508,38.8650319062648,-77.2359346142421,38.8800121180007
295797,110 - North Springfield,NORTH SPRINGFIELD,51059000110,R04,R04H - West Springfield,FAIRFAX,4701,3192,1080,R04,FAIRFAX,R04H - West Springfield,1080,-77.2189815381316,38.7925167369233,-77.1842015946337,38.8117932918002
297099,108 - George Washington Middle Sch,George Washington Middle School,51510000108,R01,R01A - Alexandria,ALEXANDRIA CITY,4503,3588,1074,R01,ALEXANDRIA CITY,R01A - Alexandria,1074,-77.0665420005531,38.8130860001098,-77.0496269995359,38.825334999612
296287,514 - Pleasants,Pleasants,51087000514,R07,R07A - East,HENRICO,4001,3092,1070,R07,HENRICO,R07A - East,1070,-77.3727520007704,37.5298049991848,-77.3239979994601,37.551626999853
295882,421 - Kingstowne,KINGSTOWNE,51059000421,R04,R04G - Franconia,FAIRFAX,4052,3078,1076,R04,FAIRFAX,R04G - Franconia,1076,-77.1661172862556,38.7495397254734,-77.1393029469272,38.7683675109441
297251,108 - Thomas,Thomas,51650000108,R08,R08A - Hampton,HAMPTON CITY,4242,3399,1064,R08,HAMPTON CITY,R08A - Hampton,1064,-76.380028353613,37.0237433013651,-76.3360741638322,37.0440845931736
297252,109 - Phenix,Phenix,51650000109,R08,R08A - Hampton,HAMPTON CITY,3981,3085,1068,R08,HAMPTON CITY,R08A - Hampton,1068,-76.407835783183,36.9906691673312,-76.3704371320543,37.0141971954296
296392,616 - Eagle Ridge,EAGLE RIDGE,51107000616,R03,R03A - Ashburn,LOUDOUN,4587,3369,1057,R03,LOUDOUN,R03A - Ashburn,1057,-77.5181790682555,39.0019852353533,-77.490496356288,39.0170771069143
296734,704 - Porter,Porter,51153000704,R04,R04I - Woodbridge,PRINCE WILLIAM,3672,2995,1056,R04,PRINCE WILLIAM,R04I - Woodbridge,1056,-77.2828049993186,38.6162740003498,-77.2636689999997,38.6368759998766
297403,311 - Sherwood,Sherwood,51710000311,R10,R10E - Norfolk Central,NORFOLK CITY,5205,4018,1067,R10,NORFOLK CITY,R10E - Norfolk Central,1067,-76.247477000792,36.8534810004574,-76.2323359999844,36.8697900004676
297403,311 - Sherwood,Sherwood,51710000311,R10,R10E - Norfolk Central,NORFOLK CITY,5205,4018,1067,R10,NORFOLK CITY,R10E - Norfolk Central,1067,-76.2527142049495,36.868804441681,-76.2233350003135,36.8883599997905
297403,311 - Sherwood,Sherwood,51710000311,R10,R10E - Norfolk Central,NORFOLK CITY,5205,4018,1067,R10,NORFOLK CITY,R10E - Norfolk Central,1067,-76.247477000792,36.8534810004574,-76.2323359999844,36.8697900004676
297403,311 - Sherwood,Sherwood,51710000311,R10,R10E - Norfolk Central,NORFOLK CITY,5205,4018,1067,R10,NORFOLK CITY,R10E - Norfolk Central,1067,-76.2527142049495,36.868804441681,-76.2233350003135,36.8883599997905
1824852,611 - Neabsco,Neabsco,51153000611,R04,R04A - Dale City,PRINCE WILLIAM,3697,2793,1063,R04,PRINCE WILLIAM,R04A - Dale City,1063,-77.3574419999084,38.623538999627,-77.3378250003656,38.6470770005094
297347,218 - Kiln Creek,Kiln Creek,51700000218,R08,R08E - Nicewood,NEWPORT NEWS CITY,5021,3683,1061,R08,NEWPORT NEWS CITY,R08E - Nicewood,1061,-76.5200133345805,37.108899083203,-76.4709773341362,37.1492530828755
297328,107 - Richneck,Richneck,51700000107,R08,R08E - Nicewood,NEWPORT NEWS CITY,4891,3364,1061,R08,NEWPORT NEWS CITY,R08E - Nicewood,1061,-76.5276913350268,37.1475020832932,-76.5003023335297,37.1731850835622
295995,901 - Centre Ridge,CENTRE RIDGE,51059000901,R02,R02B - Centreville,FAIRFAX,3989,2809,1043,R02,FAIRFAX,R02B - Centreville,1043,-77.4575223957188,38.8194852686287,-77.4320380211517,38.8387154660563
295709,414 - Crenshaw,Crenshaw,51041000414,R07,R07F - South Chesterfield,CHESTERFIELD,6272,4517,1046,R07,CHESTERFIELD,R07F - South Chesterfield,1046,-77.6302670450427,37.4098805997653,-77.581808202287,37.4371470230074
1594346,120 - Lunsford,LUNSFORD,51107000120,R03,R03G - South Riding,LOUDOUN,4100,2366,1042,R03,LOUDOUN,R03G - South Riding,1042,-77.5475452077941,38.8473787466874,-77.4968290900705,38.9104946378524
296695,302 - Potomac,Potomac,51153000302,R04,R04B - Dumfries,PRINCE WILLIAM,3569,2469,1045,R04,PRINCE WILLIAM,R04B - Dumfries,1045,-77.3159659999097,38.5868129999191,-77.2912180004321,38.6108620002227
296736,706 - Rippon,Rippon,51153000706,R04,R04I - Woodbridge,PRINCE WILLIAM,3960,2931,1041,R04,PRINCE WILLIAM,R04I - Woodbridge,1041,-77.2748050004536,38.6042571406227,-77.2451233914518,38.633956000226
297269,208 - Kraft,Kraft,51650000208,R08,R08D - Newport News,HAMPTON CITY,4937,3553,1040,R08,HAMPTON CITY,R08D - Newport News,1040,-76.4301069297929,37.0389395464975,-76.3985974926315,37.0658575452108
297115,307 - Tucker West,Tucker West,51510000307,R01,R01I - Westend Alexandria,ALEXANDRIA CITY,3774,3247,1033,R01,ALEXANDRIA CITY,R01I - Westend Alexandria,1033,-77.1443590004178,38.7981689999741,-77.1330559995593,38.8133029993931
297322,101 - Denbigh,Denbigh,51700000101,R08,R08E - Nicewood,NEWPORT NEWS CITY,4600,3540,1034,R08,NEWPORT NEWS CITY,R08E - Nicewood,1034,-76.5517963338988,37.1153159452724,-76.5181673344008,37.1404960826574
297225,003 - Third Ward,Third Ward,51610000003,R02,R02E - Falls Church,FALLS CHURCH CITY,4142,3026,1039,R02,FALLS CHURCH CITY,R02E - Falls Church,1039,-77.1949693442116,38.8806717765323,-77.1659493345351,38.8998907799402
1569569,429 - Hybla Valley,HYBLA VALLEY,51059000429,R04,R04C - Groveton,FAIRFAX,4208,3430,1025,R04,FAIRFAX,R04C - Groveton,1025,-77.0961806575078,38.7394238369939,-77.0829644579949,38.7636077566025
295836,235 - Frying Pan,FRYING PAN,51059000235,R02,R02F - Herndon,FAIRFAX,3514,2351,1027,R02,FAIRFAX,R02F - Herndon,1027,-77.4138421950158,38.9325351886625,-77.386670838244,38.9478580204534
295988,846 - Greenbriar East,GREENBRIAR EAST,51059000846,R02,R02D - Fair Oaks,FAIRFAX,4086,3047,1026,R02,FAIRFAX,R02D - Fair Oaks,1026,-77.3962999219953,38.8649248557757,-77.3726839911169,38.8800878729137
297092,101 - Old Town North,Old Town North,51510000101,R01,R01A - Alexandria,ALEXANDRIA CITY,3897,3333,1017,R01,ALEXANDRIA CITY,R01A - Alexandria,1017,-77.0480482937478,38.808642884312,-77.0373624291595,38.8412810000357
297110,302 - Patrick Henry Rec Center,Patrick Henry Rec Center,51510000302,R01,R01I - Westend Alexandria,ALEXANDRIA CITY,3704,3363,1018,R01,ALEXANDRIA CITY,R01I - Westend Alexandria,1018,-77.1161859996463,38.8096299998929,-77.1024220002866,38.8202260001632
295895,507 - Lincolnia,LINCOLNIA,51059000507,R02,R02A - Annandale,FAIRFAX,3943,3103,1024,R02,FAIRFAX,R02A - Annandale,1024,-77.1741488878523,38.8171106211087,-77.1384491683182,38.8361113058145
296730,608 - Enterprise,Enterprise,51153000608,R04,R04A - Dale City,PRINCE WILLIAM,4026,2592,1029,R04,PRINCE WILLIAM,R04A - Dale City,1029,-77.3717879997744,38.6339130002443,-77.348304999795,38.6595719997604
297386,211 - Chrysler Museum,Chrysler Museum,51710000211,R10,R10D - West Norfolk,NORFOLK CITY,4602,4024,1035,R10,NORFOLK CITY,R10D - West Norfolk,1035,-76.3103257261153,36.8426242763501,-76.2844199994591,36.8644409993272
297111,303 - Charles E Beatley Library,Charles E Beatley Library,51510000303,R01,R01I - Westend Alexandria,ALEXANDRIA CITY,3524,3205,1028,R01,ALEXANDRIA CITY,R01I - Westend Alexandria,1028,-77.1380740004145,38.8116970003287,-77.1134169993769,38.8211090000086
295986,844 - Centerpointe,CENTERPOINTE,51059000844,R02,R02D - Fair Oaks,FAIRFAX,3812,3236,1023,R02,FAIRFAX,R02D - Fair Oaks,1023,-77.3783053625006,38.8574297653778,-77.3444796301588,38.8715998538567
297514,504 - Five Hundred Four,Five Hundred Four,51760000504,R06,R06A - Downtown,RICHMOND CITY,3374,3063,1018,R06,RICHMOND CITY,R06A - Downtown,1018,-77.4751185802328,37.5401894287912,-77.4552856185091,37.5518617054398
297524,609 - Six Hundred Nine,Six Hundred Nine,51760000609,R07,R07D - Rocketts Landing,RICHMOND CITY,3245,3117,1017,R07,RICHMOND CITY,R07D - Rocketts Landing,1017,-77.452298624968,37.4942393806447,-77.4163551754293,37.5328602820743
297234,101 - Precinct 1 - District One,Precinct 1 - District One,51630000101,R05,R05B - HD 65,FREDERICKSBURG CITY,4900,3739,1019,R05,FREDERICKSBURG CITY,R05B - HD 65,1019,-77.5178824077177,38.2789196425252,-77.4806285299786,38.316646348043
2257738,145 - Precinct 145,PRECINCT 145,51013000145,R01,R01C - Ballston,ARLINGTON,3077,2781,1004,R01,ARLINGTON,R01C - Ballston,1004,-77.1165580000903,38.8691479997815,-77.1007679997276,38.8782150002859
295793,105 - Fairview,FAIRVIEW,51059000105,R04,R04H - West Springfield,FAIRFAX,5114,3353,1021,R04,FAIRFAX,R04H - West Springfield,1021,-77.326653114911,38.7801456526147,-77.3014098409796,38.8004752399575
295955,713 - Timber Lane,TIMBER LANE,51059000713,R02,R02G - McLean,FAIRFAX,3648,2700,1013,R02,FAIRFAX,R02G - McLean,1013,-77.2224796074923,38.8749655410117,-77.1896425843084,38.8904270659354
2257756,106 - Precinct 106,PRECINCT 106,51013000106,R01,R01F - Crystal City,ARLINGTON,3393,3108,1003,R01,ARLINGTON,R01F - Crystal City,1003,-77.0561169995786,38.8497669999966,-77.0410040001567,38.8740379997643
297341,211 - Palmer,Palmer,51700000211,R08,R08E - Nicewood,NEWPORT NEWS CITY,4345,3624,1005,R08,NEWPORT NEWS CITY,R08E - Nicewood,1005,-76.5146853341039,37.0913280834132,-76.4608362160628,37.120702082802
297224,002 - Second Ward,Second Ward,51610000002,R02,R02E - Falls Church,FALLS CHURCH CITY,3789,2823,1011,R02,FALLS CHURCH CITY,R02E - Falls Church,1011,-77.1780513374315,38.8724757757316,-77.1497039215611,38.8882947784116
297163,032 - Providence,Providence,51550000032,R09,R09F - East Portsmouth,CHESAPEAKE CITY,4120,3180,1007,R09,CHESAPEAKE CITY,R09F - East Portsmouth,1007,-76.2686707430844,36.7965216720193,-76.2427563261262,36.8207741743249
297474,038 - Grove Baptist Church,Grove Baptist Church,51740000038,R09,R09E - West Portsmouth,PORTSMOUTH CITY,4111,3173,1012,R09,PORTSMOUTH CITY,R09E - West Portsmouth,1012,-76.423602477654,36.8609982296849,-76.392053497552,36.8808127090003
2228517,111 - Stoneybrook,Stoneybrook,51700000111,R08,R08E - Nicewood,NEWPORT NEWS CITY,4814,3654,1003,R08,NEWPORT NEWS CITY,R08E - Nicewood,1003,-76.5692183341809,37.1367610826252,-76.5417703340308,37.1651950832802
295902,516 - Weyanoke,WEYANOKE,51059000516,R02,R02A - Annandale,FAIRFAX,3737,2896,1007,R02,FAIRFAX,R02A - Annandale,1007,-77.1721231266995,38.8021709077835,-77.1411617130653,38.822638023181
1866909,201 - Armstrong,ARMSTRONG,51059000201,R02,R02H - Reston,FAIRFAX,4157,3119,999,R02,FAIRFAX,R02H - Reston,999,-77.3648807798929,38.9662444582472,-77.3425165480566,38.9912485145836
296289,517 - Sullivans,Sullivans,51087000517,R07,R07A - East,HENRICO,4046,2834,1002,R07,HENRICO,R07A - East,1002,-77.4267921239971,37.4231814084614,-77.3623160017219,37.5074970003468
296714,411 - Mullen,Mullen,51153000411,R03,R03B - HD 21,PRINCE WILLIAM,3716,2999,998,R03,PRINCE WILLIAM,R03B - HD 21,998,-77.5722690003697,38.7747830001848,-77.5181150004094,38.8016119999045
297179,048 - Jolliff Middle School,Jolliff Middle School,51550000048,R09,R09E - West Portsmouth,CHESAPEAKE CITY,4074,2841,996,R09,CHESAPEAKE CITY,R09E - West Portsmouth,996,-76.4341540036413,36.7720213691627,-76.3590249894821,36.8066922767284
295892,505 - Glen Forest,GLEN FOREST,51059000505,R02,R02A - Annandale,FAIRFAX,3467,2764,1001,R02,FAIRFAX,R02A - Annandale,1001,-77.1475161178057,38.850488212563,-77.1209790111504,38.8666849799779
1991018,319 - Magnolia,Magnolia,51041000319,R07,R07B - HD 73,CHESTERFIELD,7261,4342,997,R07,CHESTERFIELD,R07B - HD 73,997,-77.8785263292261,37.3548799057331,-77.6851120569673,37.4385884620965
295851,315 - Pimmit,PIMMIT,51059000315,R02,R02G - McLean,FAIRFAX,3757,2702,993,R02,FAIRFAX,R02G - McLean,993,-77.2159379543208,38.9025077329152,-77.1886043411475,38.9233150528857
2257692,148 - Precinct 148,PRECINCT 148,51013000148,R01,R01E - Clarendon,ARLINGTON,2955,2713,996,R01,ARLINGTON,R01E - Clarendon,996,-77.0969130000601,38.8844670002323,-77.0877409997866,38.890423000076
331417,308 - Cameron Station Community Ctr,Cameron Station Community Center,51510000308,R01,R01I - Westend Alexandria,ALEXANDRIA CITY,3993,3242,989,R01,ALEXANDRIA CITY,R01I - Westend Alexandria,989,-77.1344909998352,38.7986029998421,-77.1077470003902,38.8123090002579
2257708,143 - Precinct 143,PRECINCT 143,51013000143,R01,R01D - Barcroft,ARLINGTON,2973,2549,995,R01,ARLINGTON,R01D - Barcroft,995,-77.1258152226365,38.853265389293,-77.1121979999094,38.8598540001163
1706911,706 - Huntersville,HUNTERSVILLE,51800000706,R09,R09B - HD 84,SUFFOLK CITY,3571,2855,995,R09,SUFFOLK CITY,R09B - HD 84,995,-76.4436669954135,36.8630893855609,-76.4134359866654,36.8810293902626
297396,303 - Broad Creek,Broad Creek,51710000303,R10,R10E - Norfolk Central,NORFOLK CITY,3381,2669,994,R10,NORFOLK CITY,R10E - Norfolk Central,994,-76.2668690091871,36.8504920002868,-76.245522999759,36.8680248369232
295672,202 - Beulah,Beulah,51041000202,R07,R07E - North Chesterfield,CHESTERFIELD,4432,3131,985,R07,CHESTERFIELD,R07E - North Chesterfield,985,-77.4848914878543,37.4033932271801,-77.4535818027743,37.4410860495014
296946,703 - Lees Parke,Lee's Parke (703),51177000703,R05,R05C - HD 66,SPOTSYLVANIA,4230,2753,987,R05,SPOTSYLVANIA,R05C - HD 66,987,-77.5432234111656,38.192857624076,-77.5068203987989,38.2225576310428
297418,413 - Poplar Halls,Poplar Halls,51710000413,R10,R10E - Norfolk Central,NORFOLK CITY,3874,3017,979,R10,NORFOLK CITY,R10E - Norfolk Central,979,-76.227932524937,36.83256280922,-76.2097849994174,36.8714750002309
2257715,138 - Precinct 138,PRECINCT 138,51013000138,R01,R01B - Arlington,ARLINGTON,3462,3106,975,R01,ARLINGTON,R01B - Arlington,975,-77.0830709999843,38.860177999983,-77.0653149997913,38.8701750003231
297124,101 - Key Recreation,Key Rec.,51540000101,R14,R14B - NE Charlottesville,CHARLOTTESVILLE CITY,4557,3824,980,R14,CHARLOTTESVILLE CITY,R14B - NE Charlottesville,980,-78.4855631286083,38.0212215538244,-78.4524352992073,38.0428077537271
297687,061 - Precinct 61,PRECINCT 61,51810000061,R10,R10J - East Norfolk,VIRGINIA BEACH CITY,4451,3792,985,R10,VIRGINIA BEACH CITY,R10J - East Norfolk,985,-76.1939356850931,36.8481107713783,-76.1614540938261,36.8738975833125
295855,319 - Herndon #1,HERNDON #1,51059000319,R02,R02F - Herndon,FAIRFAX,4476,3008,978,R02,FAIRFAX,R02F - Herndon,978,-77.3923173822187,38.966282274688,-77.3652600584874,38.9891455682044
297107,207 - Temple Beth El Synagogue,Temple Beth El Synagogue,51510000207,R01,R01I - Westend Alexandria,ALEXANDRIA CITY,4239,3062,972,R01,ALEXANDRIA CITY,R01I - Westend Alexandria,972,-77.1128910007437,38.8020559996214,-77.0872889998749,38.8249169994114
295947,705 - Graham-Greenway,GRAHAM-GREENWAY,51059000705,R02,R02G - McLean,FAIRFAX,3855,2806,982,R02,FAIRFAX,R02G - McLean,982,-77.2007709032683,38.8660565566942,-77.177268426017,38.8794322887371
2257722,127 - Precinct 127,PRECINCT 127,51013000127,R01,R01D - Barcroft,ARLINGTON,3614,2807,977,R01,ARLINGTON,R01D - Barcroft,977,-77.1040530003811,38.8595329996539,-77.0870229997362,38.8734810002088
1569544,506 - Baker-Butler,Baker-Butler,51003000506,R14,R14B - NE Charlottesville,ALBEMARLE,5278,3368,971,R14,ALBEMARLE,R14B - NE Charlottesville,971,-78.4458026835284,38.1074565732379,-78.3324536517454,38.1920398977566
296016,927 - Armfield,ARMFIELD,51059000927,R02,R02F - Herndon,FAIRFAX,3439,2325,972,R02,FAIRFAX,R02F - Herndon,972,-77.4731015857388,38.8873548955904,-77.4130564116874,38.9526782387095
295985,843 - Fair Lakes,FAIR LAKES,51059000843,R02,R02D - Fair Oaks,FAIRFAX,3761,2795,979,R02,FAIRFAX,R02D - Fair Oaks,979,-77.4075542251822,38.8517253640708,-77.3818407191322,38.8694795507712
297494,213 - Two Hundred Thirteen,Two Hundred Thirteen,51760000213,R06,R06A - Downtown,RICHMOND CITY,3291,3104,980,R06,RICHMOND CITY,R06A - Downtown,980,-77.4526943454271,37.5445226975015,-77.4355698878284,37.5586644298879
295743,201 - East Fairfax,East Fairfax,51047000201,R05,R05E - West,CULPEPER,4564,3371,973,R05,CULPEPER,R05E - West,973,-78.0138599998407,38.4452089987989,-77.9602409996327,38.4928839992212
297332,110 - Greenwood,Greenwood,51700000110,R08,R08E - Nicewood,NEWPORT NEWS CITY,4414,3333,969,R08,NEWPORT NEWS CITY,R08E - Nicewood,969,-76.5916313355539,37.1589450832924,-76.5147773350637,37.2205235137368
2355392,422 - Otterdale,Otterdale,51041000422,R07,R07B - HD 73,CHESTERFIELD,5542,3713,970,R07,CHESTERFIELD,R07B - HD 73,970,-77.7027922267738,37.4421730180662,-77.6539028008412,37.4953275387547
296218,201 - Azalea,Azalea,51087000201,R06,R06C - Highland Park,HENRICO,4064,3389,972,R06,HENRICO,R06C - Highland Park,972,-77.4577130002558,37.5982429991222,-77.4183529998751,37.6183040003345
297125,102 - Summit,Clark,51540000102,R14,R14C - S Charlottesville,CHARLOTTESVILLE CITY,4207,3582,966,R14,CHARLOTTESVILLE CITY,R14C - S Charlottesville,966,-78.4857488328354,38.0115307322707,-78.4619069280523,38.0284933441445
297310,002 - Weems,Weems,51683000002,R03,R03E - Manassas,MANASSAS CITY,4460,3217,961,R03,MANASSAS CITY,R03E - Manassas,961,-77.4821928939436,38.7569834062862,-77.4586340150688,38.7811641087029
972596,109 - Elizabeth Scott,Elizabeth Scott,51041000109,R07,R07C - HD 75,CHESTERFIELD,5741,3576,955,R07,CHESTERFIELD,R07C - HD 75,955,-77.412543199674,37.3264948027061,-77.3340515650309,37.3916354431591
2257702,149 - Precinct 149,PRECINCT 149,51013000149,R01,R01E - Clarendon,ARLINGTON,2893,2697,940,R01,ARLINGTON,R01E - Clarendon,940,-77.1138499999202,38.8760989996834,-77.1003330004327,38.8826609996716
892251,709 - Freedom,Freedom,51153000709,R04,R04B - Dumfries,PRINCE WILLIAM,3127,2389,957,R04,PRINCE WILLIAM,R04B - Dumfries,957,-77.2946659994955,38.5986020000797,-77.2717181124717,38.6252140012457
295846,309 - Kenmore,KENMORE,51059000309,R02,R02H - Reston,FAIRFAX,4427,2486,955,R02,FAIRFAX,R02H - Reston,955,-77.2879769606337,38.9335077848703,-77.2257615547722,38.9752518167876
295820,213 - Vienna #1,VIENNA #1,51059000213,R02,R02I - Vienna,FAIRFAX,4480,2786,955,R02,FAIRFAX,R02I - Vienna,955,-77.2739107204017,38.8823614792231,-77.2418926813808,38.9108737544463
297094,103 - Lyles Crouch School,Lyles Crouch School,51510000103,R01,R01A - Alexandria,ALEXANDRIA CITY,4021,3312,953,R01,ALEXANDRIA CITY,R01A - Alexandria,953,-77.0537800000276,38.7852160004466,-77.0391217896743,38.8032059997836
297605,203 - Kings Fork,KINGS FORK,51800000203,R09,R09B - HD 84,SUFFOLK CITY,3834,2657,944,R09,SUFFOLK CITY,R09B - HD 84,944,-76.6247850472148,36.7668883613611,-76.5759831039886,36.8078853691373
295663,103 - Enon,Enon,51041000103,R07,R07C - HD 75,CHESTERFIELD,5740,3815,955,R07,CHESTERFIELD,R07C - HD 75,955,-77.4038668209873,37.2361266577254,-77.2462344691177,37.405678208854
297309,001 - Dean,Dean,51683000001,R03,R03E - Manassas,MANASSAS CITY,4305,3350,952,R03,MANASSAS CITY,R03E - Manassas,952,-77.5265023267738,38.7061059998378,-77.4711166476258,38.7652567819498
296219,202 - Belmont,Belmont,51087000202,R06,R06C - Highland Park,HENRICO,4280,3475,947,R06,HENRICO,R06C - Highland Park,947,-77.4800570002353,37.5967532462318,-77.444029001262,37.6375920002801
296723,601 - Dale,Dale,51153000601,R04,R04A - Dale City,PRINCE WILLIAM,3401,2601,945,R04,PRINCE WILLIAM,R04A - Dale City,945,-77.3246059990073,38.6245670000076,-77.304820999235,38.644683999712
295965,729 - Nottoway,NOTTOWAY,51059000729,R02,R02I - Vienna,FAIRFAX,4109,2869,942,R02,FAIRFAX,R02I - Vienna,942,-77.2928292726246,38.8747447258974,-77.2528510687334,38.8933287129639
1824854,711 - Grayson,Grayson,51153000711,R04,R04I - Woodbridge,PRINCE WILLIAM,3629,2906,945,R04,PRINCE WILLIAM,R04I - Woodbridge,945,-77.2859850003901,38.6350260001284,-77.2610490005915,38.6565260000633
297261,118 - Mallory,Mallory,51650000118,R08,R08D - Newport News,HAMPTON CITY,3717,2779,937,R08,HAMPTON CITY,R08D - Newport News,937,-76.4265049936258,37.0132775068249,-76.4039528530966,37.0326496898851
296721,507 - Chinn,Chinn,51153000507,R04,R04F - Lake Ridge,PRINCE WILLIAM,3850,2809,946,R04,PRINCE WILLIAM,R04F - Lake Ridge,946,-77.3374250003325,38.6655820001401,-77.3167459998844,38.6869799997617
1706905,204 - Hillpoint,HILLPOINT,51800000204,R09,R09B - HD 84,SUFFOLK CITY,3885,2624,946,R09,SUFFOLK CITY,R09B - HD 84,946,-76.5874670351543,36.7646991596897,-76.5467839915316,36.8055564781798
1071013,114 - Dulles South,DULLES SOUTH,51107000114,R03,R03G - South Riding,LOUDOUN,3448,2279,937,R03,LOUDOUN,R03G - South Riding,937,-77.5189241345454,38.8991153717755,-77.427405764066,38.9905295007709
297367,320 - Watkins,Watkins,51700000320,R08,R08F - Port Warwick,NEWPORT NEWS CITY,5154,3798,940,R08,NEWPORT NEWS CITY,R08F - Port Warwick,940,-76.4811443344694,37.0548600845087,-76.4465913332601,37.0892220830588
1936700,321 - Brambleton Middle,BRAMBLETON MIDDLE,51107000321,R03,R03G - South Riding,LOUDOUN,3583,2359,949,R03,LOUDOUN,R03G - South Riding,949,-77.5606073749819,38.9627610104177,-77.530816426637,38.9907525816775
295941,855 - Saratoga,SARATOGA,51059000855,R04,R04H - West Springfield,FAIRFAX,4000,2642,941,R04,FAIRFAX,R04H - West Springfield,941,-77.2269262681487,38.7339461870619,-77.2083623995461,38.7590638922876
295828,223 - Glade,GLADE,51059000223,R02,R02D - Fair Oaks,FAIRFAX,4067,2993,934,R02,FAIRFAX,R02D - Fair Oaks,934,-77.3668253225643,38.9204347339356,-77.3233577719537,38.9396180278896
295791,504 - Bristow,BRISTOW,51059000504,R02,R02A - Annandale,FAIRFAX,3102,2392,933,R02,FAIRFAX,R02A - Annandale,933,-77.2142819217726,38.8155473306623,-77.196864994277,38.8326768367195
297298,202 - Second Ward Second Precinct,Ward II Precinct 2,51680000202,R13,R13E - Lynchburg,LYNCHBURG CITY,4855,3990,933,R13,LYNCHBURG CITY,R13E - Lynchburg,933,-79.1783107287856,37.3926827978756,-79.1255966958864,37.4174348088153
2257749,152 - Precinct 152,PRECINCT 152,51013000152,R01,R01F - Crystal City,ARLINGTON,2925,2588,932,R01,ARLINGTON,R01F - Crystal City,932,-77.0822449999788,38.8429339996505,-77.0648071738865,38.8531629998042
296737,707 - Kilby,Kilby,51153000707,R04,R04I - Woodbridge,PRINCE WILLIAM,3418,2653,940,R04,PRINCE WILLIAM,R04I - Woodbridge,940,-77.2793190006203,38.6559510004531,-77.24162131664,38.6718584674987
295906,520 - Skyline,SKYLINE,51059000520,R02,R02A - Annandale,FAIRFAX,3219,2878,932,R02,FAIRFAX,R02A - Annandale,932,-77.1301881450828,38.8402421127615,-77.1142138957637,38.850425637967
546532,093 - Precinct 93,PRECINCT 93,51810000093,R10,R10J - East Norfolk,VIRGINIA BEACH CITY,4198,3539,925,R10,VIRGINIA BEACH CITY,R10J - East Norfolk,925,-76.1809335065017,36.8595697703472,-76.1507579606376,36.8712829549269
297531,706 - Seven Hundred Six,Seven Hundred Six,51760000706,R07,R07D - Rocketts Landing,RICHMOND CITY,3658,3057,930,R07,RICHMOND CITY,R07D - Rocketts Landing,930,-77.4186083486895,37.5049533302849,-77.387391478443,37.526110996063
297435,201 - Second Ward First Precinct,Second Ward First Precinct,51730000201,R11,R11D - HD 82,PETERSBURG CITY,3606,2755,926,R11,PETERSBURG CITY,R11D - HD 82,926,-77.3847163036118,37.1709610096135,-77.350954291468,37.2160994270718
295668,108 - Ecoff,Ecoff,51041000108,R07,R07C - HD 75,CHESTERFIELD,5920,4101,930,R07,CHESTERFIELD,R07C - HD 75,930,-77.4804468906281,37.3312978022234,-77.4379607090413,37.3811232173363
2257719,102 - Precinct 102,PRECINCT 102,51013000102,R01,R01E - Clarendon,ARLINGTON,3632,2955,913,R01,ARLINGTON,R01E - Clarendon,913,-77.108329999823,38.8706890003435,-77.0910010003257,38.8859820000414
295845,307 - Haycock,HAYCOCK,51059000307,R02,R02G - McLean,FAIRFAX,4249,2572,923,R02,FAIRFAX,R02G - McLean,923,-77.188822342504,38.8932534147462,-77.1557983269088,38.915160168873
295373,405 - Mountain View,Mountain View,51003000405,R14,R14C - S Charlottesville,ALBEMARLE,4556,3605,917,R14,ALBEMARLE,R14C - S Charlottesville,917,-78.5256206995532,37.9770425430866,-78.4203586684704,38.034527324531
1751477,312 - Triangle,Triangle,51153000312,R04,R04B - Dumfries,PRINCE WILLIAM,3739,2399,921,R04,PRINCE WILLIAM,R04B - Dumfries,921,-77.3357090007475,38.5304950006103,-77.2982450007752,38.5569139998344
296673,203 - Bennett,Bennett,51153000203,R04,R04D - HD 22,PRINCE WILLIAM,4281,2710,919,R04,PRINCE WILLIAM,R04D - HD 22,919,-77.4934170002622,38.7147489997586,-77.4505099992872,38.7385200003789
297436,301 - Third Ward First Precinct,Third Ward First Precinct,51730000301,R11,R11D - HD 82,PETERSBURG CITY,3770,2848,911,R11,PETERSBURG CITY,R11D - HD 82,911,-77.4021623086749,37.1716634172736,-77.3695032983426,37.21240442604
297128,301 - Jackson-Via,Jackson-Via,51540000301,R14,R14B - NE Charlottesville,CHARLOTTESVILLE CITY,3998,3270,915,R14,CHARLOTTESVILLE CITY,R14B - NE Charlottesville,915,-78.5236320325334,38.0096820293581,-78.4828005944122,38.0258949517943
295967,731 - Tysons,TYSONS,51059000731,R02,R02I - Vienna,FAIRFAX,3488,3138,909,R02,FAIRFAX,R02I - Vienna,909,-77.2465870354088,38.9104345695848,-77.2157813519157,38.9344977433063
296722,501 - Springwoods,Springwoods,51153000501,R04,R04F - Lake Ridge,PRINCE WILLIAM,3988,2819,918,R04,PRINCE WILLIAM,R04F - Lake Ridge,918,-77.3467619995641,38.6800500001388,-77.3165790003781,38.7169049999086
295666,106 - Harrowgate,Harrowgate,51041000106,R11,R11E - Colonial Heights / Chesterfield,CHESTERFIELD,5148,3357,914,R11,CHESTERFIELD,R11E - Colonial Heights / Chesterfield,914,-77.4602682293354,37.2743320549465,-77.4106556811585,37.3283115740111
2257718,320 - Dry Creek,Dry Creek,51041000320,R07,R07B - HD 73,CHESTERFIELD,6064,3754,904,R07,CHESTERFIELD,R07B - HD 73,904,-77.7072744131048,37.3611977866384,-77.6551313970109,37.4041202004726
297485,113 - One Hundred Thirteen,One Hundred Thirteen,51760000113,R06,R06H - Westhampton,RICHMOND CITY,3010,2724,897,R06,RICHMOND CITY,R06H - Westhampton,897,-77.4847668537952,37.5583319568791,-77.4702945058845,37.5692850386146
1824846,313 - Cardinal,Cardinal,51153000313,R04,R04B - Dumfries,PRINCE WILLIAM,3436,2131,906,R04,PRINCE WILLIAM,R04B - Dumfries,906,-77.3374500004469,38.6030680007052,-77.3030540004947,38.6161949994897
295742,101 - West Fairfax,West Fairfax,51047000101,R05,R05E - West,CULPEPER,4884,3266,906,R05,CULPEPER,R05E - West,906,-78.0322970002741,38.4546559988704,-77.9941687599295,38.4856189990006
2228519,614 - Rosa Parks,McAuliffe,51153000614,R04,R04A - Dale City,PRINCE WILLIAM,3466,2318,910,R04,PRINCE WILLIAM,R04A - Dale City,910,-77.3959239995068,38.6424780006842,-77.365904999454,38.6739450005025
297366,319 - Saunders,Saunders,51700000319,R08,R08F - Port Warwick,NEWPORT NEWS CITY,4352,3454,904,R08,NEWPORT NEWS CITY,R08F - Port Warwick,904,-76.4684883342492,37.0791822302788,-76.4369153340948,37.103729083915
297256,112 - Smith,Smith,51650000112,R08,R08C - HD 86,HAMPTON CITY,4433,3318,910,R08,HAMPTON CITY,R08C - HD 86,910,-76.3351111127831,37.0212612241591,-76.3044606777276,37.0485285152099
297491,208 - Two Hundred Eight,Two Hundred Eight,51760000208,R06,R06A - Downtown,RICHMOND CITY,2938,2444,894,R06,RICHMOND CITY,R06A - Downtown,894,-77.4683245714333,37.5458688461348,-77.4551015195714,37.5555959521017
297647,021 - Precinct 21,PRECINCT 21,51810000021,R10,R10J - East Norfolk,VIRGINIA BEACH CITY,3971,3057,899,R10,VIRGINIA BEACH CITY,R10J - East Norfolk,899,-76.174619209742,36.8457062621496,-76.15133069592,36.8655721067343
2257734,101 - Precinct 101,PRECINCT 101,51013000101,R01,R01D - Barcroft,ARLINGTON,3057,2515,896,R01,ARLINGTON,R01D - Barcroft,896,-77.1087430002749,38.8515660003392,-77.090690999806,38.8607789998187
295875,413 - Fairfield,FAIRFIELD,51059000413,R04,R04C - Groveton,FAIRFAX,3129,2582,901,R04,FAIRFAX,R04C - Groveton,901,-77.1062019349324,38.7330561146024,-77.0885159952468,38.7471136675178
295817,203 - Floris,FLORIS,51059000203,R02,R02F - Herndon,FAIRFAX,4056,2212,901,R02,FAIRFAX,R02F - Herndon,901,-77.4248234921031,38.9208672914284,-77.3842090043096,38.9425846378269
2302172,325 - Creighton,CREIGHTON,51107000325,R03,R03G - South Riding,LOUDOUN,3978,2686,906,R03,LOUDOUN,R03G - South Riding,906,-77.5464915603226,38.9429116406422,-77.5085195459891,38.9757451374727
295804,119 - Laurel,LAUREL,51059000119,R02,R02C - East Fairfax,FAIRFAX,4354,2689,897,R02,FAIRFAX,R02C - East Fairfax,897,-77.3091858664881,38.7989891241674,-77.2773473701499,38.8149741753662
1988662,126-Goshen Post,GOSHEN POST,51107000126,R03,R03G - South Riding,LOUDOUN,3449,2261,891,R03,LOUDOUN,R03G - South Riding,891,-77.5713358322492,38.9154049227245,-77.5502639688829,38.9348445822135
296716,502 - Occoquan,Occoquan,51153000502,R04,R04F - Lake Ridge,PRINCE WILLIAM,3525,2839,892,R04,PRINCE WILLIAM,R04F - Lake Ridge,892,-77.2762740001663,38.6659899992578,-77.2463814815879,38.6862814502156
297114,306 - William Ramsay School,William Ramsay,51510000306,R01,R01I - Westend Alexandria,ALEXANDRIA CITY,3020,2539,893,R01,ALEXANDRIA CITY,R01I - Westend Alexandria,893,-77.1437359999036,38.8135879996376,-77.131610037142,38.8309560001519
297369,101 - Granby,Granby,51710000101,R10,R10D - West Norfolk,NORFOLK CITY,4222,3402,895,R10,NORFOLK CITY,R10D - West Norfolk,895,-76.292778000321,36.8978170009527,-76.2723930004991,36.9209290011219
296922,103 - John J Wright,John J. Wright (103),51177000103,R05,R05C - HD 66,SPOTSYLVANIA,5899,3856,898,R05,SPOTSYLVANIA,R05C - HD 66,898,-77.6509194409854,38.1064183398213,-77.4807530086292,38.2338166316062
295678,208 - Meadowbrook,Meadowbrook,51041000208,R07,R07E - North Chesterfield,CHESTERFIELD,3907,2833,890,R07,CHESTERFIELD,R07E - North Chesterfield,890,-77.5021277183322,37.4148757724938,-77.4708428869413,37.4508049024715
2228472,634 - Newington #2,NEWINGTON #2,51059000634,R04,R04F - Lake Ridge,FAIRFAX,3461,2464,887,R04,FAIRFAX,R04F - Lake Ridge,887,-77.2522797878234,38.7176817420216,-77.2115191899473,38.7366044902306
295936,621 - Grosvenor,GROSVENOR,51059000621,R04,R04C - Groveton,FAIRFAX,3112,2841,885,R04,FAIRFAX,R04C - Groveton,885,-77.0799595089279,38.789649762415,-77.0571313038581,38.8008148084221
296725,603 - Hampton,Hampton,51153000603,R04,R04A - Dale City,PRINCE WILLIAM,3343,2474,882,R04,PRINCE WILLIAM,R04A - Dale City,882,-77.3446910001519,38.6169820001047,-77.3236809992677,38.6450350004464
1569570,734 - Hunters Branch,HUNTERS BRANCH,51059000734,R02,R02C - East Fairfax,FAIRFAX,3126,2502,881,R02,FAIRFAX,R02C - East Fairfax,881,-77.2783363685653,38.8678557709785,-77.2630761586245,38.8782045824831
2257745,142 - Precinct 142,PRECINCT 142,51013000142,R01,R01H - Shirlington,ARLINGTON,2988,2744,871,R01,ARLINGTON,R01H - Shirlington,871,-77.099149000227,38.8376269996696,-77.0851530001654,38.8460000002332
297095,104 - Durant Center,Durant Center,51510000104,R01,R01A - Alexandria,ALEXANDRIA CITY,3343,2802,880,R01,ALEXANDRIA CITY,R01A - Alexandria,880,-77.0647569995745,38.8027850001331,-77.0459969999992,38.8130860001098
297223,001 - First Ward,First Ward,51610000001,R02,R02E - Falls Church,FALLS CHURCH CITY,3770,2543,886,R02,FALLS CHURCH CITY,R02E - Falls Church,886,-77.1942653435066,38.8781437756879,-77.1758463372267,38.8944027792036
297244,101 - Aberdeen,Aberdeen,51650000101,R08,R08A - Hampton,HAMPTON CITY,3482,2754,879,R08,HAMPTON CITY,R08A - Hampton,879,-76.4186846910552,37.022807768199,-76.3627343515808,37.0440845931736
296202,102 - Dumbarton,Dumbarton,51087000102,R06,R06G - West Henrico,HENRICO,3940,3313,875,R06,HENRICO,R06G - West Henrico,875,-77.5371779999334,37.6296990009025,-77.5159050001817,37.6492249994632
297276,214 - Jackson,Jackson,51650000214,R08,R08D - Newport News,HAMPTON CITY,4177,3175,882,R08,HAMPTON CITY,R08D - Newport News,882,-76.4497563773821,37.0184039521828,-76.4235869565625,37.0432441785879
296212,111 - Maude Trevvett,Maude Trevvett,51087000111,R06,R06G - West Henrico,HENRICO,4367,3574,869,R06,HENRICO,R06G - West Henrico,869,-77.5242030007692,37.608459826689,-77.4827450003138,37.6399279995851
296279,507 - Eanes,Eanes,51087000507,R07,R07A - East,HENRICO,3748,2952,875,R07,HENRICO,R07A - East,875,-77.4183063755152,37.4640539999027,-77.3128610009779,37.5183589996519
2257701,147 - Precinct 147,PRECINCT 147,51013000147,R01,R01D - Barcroft,ARLINGTON,2659,2353,865,R01,ARLINGTON,R01D - Barcroft,865,-77.1108649997407,38.8460000002332,-77.0947709996044,38.8566339996952
296006,916 - Waples Mill,WAPLES MILL,51059000916,R02,R02D - Fair Oaks,FAIRFAX,4628,2540,873,R02,FAIRFAX,R02D - Fair Oaks,873,-77.3804191441782,38.8747081971098,-77.316503390079,38.9040782789625
296285,512 - Montrose,Montrose,51087000512,R07,R07A - East,HENRICO,3162,2499,873,R07,HENRICO,R07A - East,873,-77.3942672608828,37.5174014764206,-77.3639209991821,37.5309500002246
2257712,122 - Precinct 122,PRECINCT 122,51013000122,R01,R01H - Shirlington,ARLINGTON,3124,2729,867,R01,ARLINGTON,R01H - Shirlington,867,-77.1070329996394,38.8347808532635,-77.0859780003459,38.8448249998941
297106,206 - Alexandria City High School,Alexandria City High School,51510000206,R01,R01H - Shirlington,ALEXANDRIA CITY,3595,2763,854,R01,ALEXANDRIA CITY,R01H - Shirlington,854,-77.1135810003067,38.8137359992386,-77.0715509993908,38.8348020003864
297311,001 - Precinct One,Precinct 1,51685000001,R03,R03E - Manassas,MANASSAS PARK CITY,3429,2631,870,R03,MANASSAS PARK CITY,R03E - Manassas,870,-77.4423069524219,38.7579723187064,-77.4220014642824,38.7798179998457
295968,732 - Oaktree Crossing,OAKTREE CROSSING,51059000732,R02,R02I - Vienna,FAIRFAX,4203,2544,869,R02,FAIRFAX,R02I - Vienna,869,-77.3386701560461,38.8631984954841,-77.3008843525896,38.905947602953
296231,217 - Maplewood,Maplewood,51087000217,R06,R06C - Highland Park,HENRICO,3202,2255,868,R06,HENRICO,R06C - Highland Park,868,-77.3958320012419,37.5615239992646,-77.3661388309225,37.5885315430152
1936187,723 - Gallows East,GALLOWS EAST,51059000723,R02,R02C - East Fairfax,FAIRFAX,2793,2433,861,R02,FAIRFAX,R02C - East Fairfax,861,-77.231459353922,38.8655267716333,-77.2203193748297,38.8849682074993
297490,207 - Two Hundred Seven,Two Hundred Seven,51760000207,R06,R06H - Westhampton,RICHMOND CITY,2706,2399,849,R06,RICHMOND CITY,R06H - Westhampton,849,-77.4756747676494,37.5501001420452,-77.465247701448,37.5595085642422
1594348,122 - Hutchison Farm,HUTCHISON FARM,51107000122,R03,R03G - South Riding,LOUDOUN,3833,2223,860,R03,LOUDOUN,R03G - South Riding,860,-77.5390809524037,38.8997861442504,-77.5180696175213,38.9234837905142
297245,102 - Bassette,Bassette,51650000102,R08,R08A - Hampton,HAMPTON CITY,3202,2406,857,R08,HAMPTON CITY,R08A - Hampton,857,-76.395117391373,37.0084535628057,-76.3609382537136,37.0261173920899
297146,015 - Greenbrier Middle School,Greenbrier Middle School,51550000015,R09,R09A - Chesapeake,CHESAPEAKE CITY,4099,3267,860,R09,CHESAPEAKE CITY,R09A - Chesapeake,860,-76.2681381741733,36.7426686729571,-76.2180392700168,36.7844972458562
296694,301 - Dumfries,Dumfries,51153000301,R04,R04B - Dumfries,PRINCE WILLIAM,3384,2603,861,R04,PRINCE WILLIAM,R04B - Dumfries,861,-77.3391639994837,38.5549780002319,-77.3096229992818,38.5800219996892
297113,305 - John Adams School,John Adams School,51510000305,R01,R01H - Shirlington,ALEXANDRIA CITY,3434,3042,848,R01,ALEXANDRIA CITY,R01H - Shirlington,848,-77.1352739992846,38.8181768619413,-77.1171933623211,38.8365109996646
2228498,220 -Jenkins,Jenkins,51700000220,R08,R08E - Nicewood,NEWPORT NEWS CITY,4372,3443,856,R08,NEWPORT NEWS CITY,R08E - Nicewood,856,-76.5482623346216,37.1036460828186,-76.5072623348239,37.1245200831316
296689,511 - Westridge,Westridge,51153000511,R04,R04F - Lake Ridge,PRINCE WILLIAM,3921,2500,855,R04,PRINCE WILLIAM,R04F - Lake Ridge,855,-77.3507300001079,38.6733150004835,-77.3273919998935,38.6975880003233
297382,207 - Lambert's Point,Lamberts Point,51710000207,R10,R10D - West Norfolk,NORFOLK CITY,3909,3463,865,R10,NORFOLK CITY,R10D - West Norfolk,865,-76.3125780001619,36.8721210000512,-76.2816329996463,36.886538099735
295957,536 - Woodburn,WOODBURN,51059000536,R02,R02A - Annandale,FAIRFAX,3655,2524,862,R02,FAIRFAX,R02A - Annandale,862,-77.2202242719872,38.8326768367195,-77.1965139263757,38.8658359629047
295362,203 - Georgetown,Georgetown,51003000203,R14,R14E - UV,ALBEMARLE,3688,3171,859,R14,ALBEMARLE,R14E - UV,859,-78.508268698693,38.0570882479091,-78.4842976916305,38.0754345635862
297219,003 - Three,3,51600000003,R02,R02C - East Fairfax,FAIRFAX CITY,3955,2732,854,R02,FAIRFAX CITY,R02C - East Fairfax,854,-77.3039987173565,38.840753408648,-77.2686259226021,38.8634194457919
296249,310 - Sadler,Sadler,51087000310,R06,R06B - HD 57,HENRICO,3943,2304,851,R06,HENRICO,R06B - HD 57,851,-77.6244249998144,37.6730099987374,-77.5887980006992,37.6916289999014
546526,039 - Churchland Primary And Intermediate School,Churchland Primary and Intermediate School,51740000039,R09,R09E - West Portsmouth,PORTSMOUTH CITY,3701,2448,864,R09,PORTSMOUTH CITY,R09E - West Portsmouth,864,-76.4077243945364,36.8767098764759,-76.380598574511,36.8976892762213
1706910,704 - Burbage Grant,BURBAGE GRANT,51800000704,R09,R09B - HD 84,SUFFOLK CITY,3099,1904,853,R09,SUFFOLK CITY,R09B - HD 84,853,-76.4334239931155,36.8742643891925,-76.4039439849282,36.9023941253444
295938,623 - Alban,ALBAN,51059000623,R04,R04H - West Springfield,FAIRFAX,3168,2207,847,R04,FAIRFAX,R04H - West Springfield,847,-77.2209631785292,38.7198979768542,-77.1897902880024,38.7579364458923
2302159,630 - Croson,CROSON,51107000630,R03,R03G - South Riding,LOUDOUN,3469,2234,851,R03,LOUDOUN,R03G - South Riding,851,-77.5303076936236,38.9881055139843,-77.5003563483898,39.003135673101
2257683,114 - Precinct 114,PRECINCT 114,51013000114,R01,R01C - Ballston,ARLINGTON,2694,2441,847,R01,ARLINGTON,R01C - Ballston,847,-77.1177620003875,38.8820860003004,-77.1081699999895,38.8896750003301
1866916,009 - Highland,Highland,51770000009,R12,R12C - South Roanoke,ROANOKE CITY,4355,3909,851,R12,ROANOKE CITY,R12C - South Roanoke,851,-79.9812818074621,37.2583457539469,-79.92510738863,37.2793037706777
1991016,412 - Clover Hill,Clover Hill,51041000412,R07,R07B - HD 73,CHESTERFIELD,4756,3291,840,R07,CHESTERFIELD,R07B - HD 73,840,-77.6544788104828,37.4205419278099,-77.5966606624286,37.4626909215916
297486,114 - One Hundred Fourteen,One Hundred Fourteen,51760000114,R06,R06H - Westhampton,RICHMOND CITY,3026,2624,839,R06,RICHMOND CITY,R06H - Westhampton,839,-77.4899916117945,37.55271553126,-77.4725911450281,37.5636432991418
295871,408 - Mount Eagle,MOUNT EAGLE,51059000408,R04,R04C - Groveton,FAIRFAX,3345,2731,843,R04,FAIRFAX,R04C - Groveton,843,-77.0882261080063,38.777341802744,-77.0762302518406,38.7978272947607
295723,515 - Davis,Davis,51041000515,R07,R07E - North Chesterfield,CHESTERFIELD,3546,2842,840,R07,CHESTERFIELD,R07E - North Chesterfield,840,-77.5405444104095,37.4607314164399,-77.5007401239505,37.5018181359768
2302177,511 - Evergreen,EVERGREEN,51107000511,R03,R03D - Leesburg,LOUDOUN,4147,2606,848,R03,LOUDOUN,R03D - Leesburg,848,-77.5885633275093,39.0435778838245,-77.5097368332677,39.1024269295574
295979,833 - White Oaks,WHITE OAKS,51059000833,R04,R04H - West Springfield,FAIRFAX,3479,2310,838,R04,FAIRFAX,R04H - West Springfield,838,-77.2797294067376,38.7745665251099,-77.2539467744281,38.7925354341194
296206,105 - Hermitage,Hermitage,51087000105,R06,R06G - West Henrico,HENRICO,4144,3254,845,R06,HENRICO,R06G - West Henrico,845,-77.5407190015782,37.6197169993495,-77.4940329993071,37.66553500045
296391,615 - Hillside,HILLSIDE,51107000615,R03,R03A - Ashburn,LOUDOUN,4242,2397,833,R03,LOUDOUN,R03A - Ashburn,833,-77.5321237143273,39.0162001521334,-77.4977855461164,39.031536512795
297082,103 - Magruder,MAGRUDER,51199000103,R08,R08B - HD 69,YORK,5276,3620,839,R08,YORK,R08B - HD 69,839,-76.6724798485669,37.2125064545078,-76.5244650243157,37.3009976088292
2257760,125 - Precinct 125,PRECINCT 125,51013000125,R01,R01C - Ballston,ARLINGTON,3155,2461,835,R01,ARLINGTON,R01C - Ballston,835,-77.1283740000614,38.8664699997274,-77.1068589995621,38.8743230002092
1569603,621 - Dominion Trail,DOMINION TRAIL,51107000621,R03,R03A - Ashburn,LOUDOUN,4033,2506,834,R03,LOUDOUN,R03A - Ashburn,834,-77.48743330868,39.0174693466577,-77.4590987800406,39.044001394805
2257755,144 - Precinct 144,PRECINCT 144,51013000144,R01,R01B - Arlington,ARLINGTON,2791,2576,827,R01,ARLINGTON,R01B - Arlington,827,-77.0941250004224,38.8948239997817,-77.0704630003429,38.9024100003421
1569612,201 - Hylton,Hylton,51153000201,R04,R04A - Dale City,PRINCE WILLIAM,3414,2225,835,R04,PRINCE WILLIAM,R04A - Dale City,835,-77.3960649999721,38.6313500002346,-77.3668080003507,38.6572589998461
1835303,112 - Burke-Nickens,Burke-Nickens,51153000112,R03,R03B - HD 21,PRINCE WILLIAM,4750,3027,845,R03,PRINCE WILLIAM,R03B - HD 21,845,-77.7100510005451,38.7784399997,-77.6330259994523,38.8246540001672
296728,606 - Bel Air,Bel Air,51153000606,R04,R04A - Dale City,PRINCE WILLIAM,3228,2284,832,R04,PRINCE WILLIAM,R04A - Dale City,832,-77.3390710004956,38.6276499997111,-77.3148819992631,38.6512140001
297235,201 - Precinct 1 - District Two,Precinct 1 - District Two,51630000201,R05,R05B - HD 65,FREDERICKSBURG CITY,4347,3439,827,R05,FREDERICKSBURG CITY,R05B - HD 65,827,-77.4866236014188,38.2930989993767,-77.4604490009132,38.3195749988744
2257720,136 - Precinct 136,PRECINCT 136,51013000136,R01,R01G - Lee Heights,ARLINGTON,3563,2496,832,R01,ARLINGTON,R01G - Lee Heights,832,-77.1311979996841,38.8969289997124,-77.1081580002939,38.9154259997401
295683,301 - Ettrick,Ettrick,51041000301,R11,R11E - Colonial Heights / Chesterfield,CHESTERFIELD,5571,4078,832,R11,CHESTERFIELD,R11E - Colonial Heights / Chesterfield,832,-77.483933754404,37.2233819956015,-77.4148000416538,37.2713343372565
297313,003 - Metz,Metz,51683000003,R03,R03E - Manassas,MANASSAS CITY,4261,3036,825,R03,MANASSAS CITY,R03E - Manassas,825,-77.4809217418839,38.7273280004666,-77.449144000405,38.7532820002274
296432,702 - Park View,PARK VIEW,51107000702,R03,R03H - Sterling,LOUDOUN,3700,2690,829,R03,LOUDOUN,R03H - Sterling,829,-77.4186395992817,39.0018227776381,-77.3848370452708,39.0301828877921
1071015,314 - Legacy,LEGACY,51107000314,R03,R03G - South Riding,LOUDOUN,3232,1795,830,R03,LOUDOUN,R03G - South Riding,830,-77.530816426637,38.9676978130198,-77.5129514437321,38.9887738230297
297566,020 - Eureka Park,Eureka Park,51770000020,R12,R12B - North Roanoke,ROANOKE CITY,3353,2518,823,R12,ROANOKE CITY,R12B - North Roanoke,823,-79.9997925371225,37.2849773615194,-79.9574645695184,37.3034138175806
295976,824 - Orange,ORANGE,51059000824,R04,R04H - West Springfield,FAIRFAX,4251,2553,823,R04,FAIRFAX,R04H - West Springfield,823,-77.2676624318491,38.7526962210808,-77.237795847154,38.7725053161251
1569610,109 - Chris Yung,Chris Yung,51153000109,R04,R04D - HD 22,PRINCE WILLIAM,3809,2567,818,R04,PRINCE WILLIAM,R04D - HD 22,818,-77.5831670002739,38.7575000002825,-77.5350060002389,38.7919299999766
295866,401 - Bush Hill,BUSH HILL,51059000401,R04,R04G - Franconia,FAIRFAX,3826,2610,815,R04,FAIRFAX,R04G - Franconia,815,-77.1529790569161,38.7840244016683,-77.1087329346521,38.8029957596422
297096,105 - Lee Center,Lee Center,51510000105,R01,R01A - Alexandria,ALEXANDRIA CITY,3108,2711,803,R01,ALEXANDRIA CITY,R01A - Alexandria,803,-77.0619840000054,38.7900808673634,-77.0494149998238,38.8045659997992
296210,215 - Lakeside,Lakeside,51087000215,R06,R06C - Highland Park,HENRICO,4127,3311,816,R06,HENRICO,R06C - Highland Park,816,-77.4945368212308,37.5899785170192,-77.4709172162428,37.6168245420831
1824851,514 - Antietam,Antietam,51153000514,R04,R04F - Lake Ridge,PRINCE WILLIAM,3650,2494,823,R04,PRINCE WILLIAM,R04F - Lake Ridge,823,-77.3044789998265,38.6806430004967,-77.2788319996502,38.7043290002854
297358,311 - Newmarket,Newmarket,51700000311,R08,R08D - Newport News,NEWPORT NEWS CITY,3297,2556,812,R08,NEWPORT NEWS CITY,R08D - Newport News,812,-76.4382090338681,37.0071640838498,-76.4144085351313,37.0253935955476
2228443,604 - Gar-Field,Gar-Field,51153000604,R04,R04A - Dale City,PRINCE WILLIAM,2832,2168,810,R04,PRINCE WILLIAM,R04A - Dale City,810,-77.3236580005998,38.627198999278,-77.2897360003005,38.6527470000409
2257700,107 - Precinct 107,PRECINCT 107,51013000107,R01,R01G - Lee Heights,ARLINGTON,3330,2366,804,R01,ARLINGTON,R01G - Lee Heights,804,-77.1147179997585,38.8882260000125,-77.0932209997008,38.9022849998207
297662,036 - Precinct 36,PRECINCT 36,51810000036,R10,R10C - HD 97,VIRGINIA BEACH CITY,4581,3361,811,R10,VIRGINIA BEACH CITY,R10C - HD 97,811,-76.1198513370492,36.8132750738017,-76.0957703645178,36.8282686709263
296239,226 - Yellow Tavern,Yellow Tavern,51087000226,R06,R06E - Hanover,HENRICO,3948,2858,831,R06,HENRICO,R06E - Hanover,831,-77.4846490011181,37.6361499994794,-77.4480289997962,37.6876279660868
1988664,322 - Buffalo Trail,BUFFALO TRAIL,51107000322,R03,R03G - South Riding,LOUDOUN,2827,1812,811,R03,LOUDOUN,R03G - South Riding,811,-77.5605524843247,38.8462146078958,-77.5398615533513,38.9130969925312
295909,523 - Poe,POE,51059000523,R02,R02A - Annandale,FAIRFAX,3118,2167,811,R02,FAIRFAX,R02A - Annandale,811,-77.1921840413164,38.8118268598092,-77.1633666484489,38.8285216697294
297438,501 - Fifth Ward First Precinct,Fifth Ward First Precinct,51730000501,R11,R11D - HD 82,PETERSBURG CITY,3419,2913,814,R11,PETERSBURG CITY,R11D - HD 82,814,-77.4189833153706,37.205563424986,-77.3974753082558,37.23182842982
2228439,513 - Woodbridge,Woodbridge,51153000513,R04,R04F - Lake Ridge,PRINCE WILLIAM,4011,2479,811,R04,PRINCE WILLIAM,R04F - Lake Ridge,811,-77.3210599991362,38.6556920004385,-77.2962740009221,38.6850709995823
1569627,303 - Buford,Buford,51540000303,R14,R14E - UV,CHARLOTTESVILLE CITY,3483,3034,809,R14,CHARLOTTESVILLE CITY,R14E - UV,809,-78.5046776896329,38.017898540512,-78.4817377068698,38.0332625547545
295833,229 - Fox Mill #1,FOX MILL #1,51059000229,R02,R02D - Fair Oaks,FAIRFAX,4256,2354,807,R02,FAIRFAX,R02D - Fair Oaks,807,-77.3967363630862,38.9098931685992,-77.3724248253608,38.9398275624735
297523,607 - Six Hundred Seven,Six Hundred Seven,51760000607,R06,R06A - Downtown,RICHMOND CITY,2670,2549,799,R06,RICHMOND CITY,R06A - Downtown,799,-77.4494515413374,37.5281364591947,-77.4269187828589,37.5503220385235
297279,101 - Northeast,Northeast,51660000101,R12,R12A - Harrisonburg,HARRISONBURG CITY,4011,3325,805,R12,HARRISONBURG CITY,R12A - Harrisonburg,805,-78.8678258329807,38.4399116241447,-78.8339916977977,38.4631236287684
297510,412 - Four Hundred Twelve,Four Hundred Twelve,51760000412,R07,R07H - North Midlothian,RICHMOND CITY,2871,2475,809,R07,RICHMOND CITY,R07H - North Midlothian,809,-77.5283032953066,37.5138537291988,-77.5026827837531,37.5338996876623
297388,213 - Taylor Elementary School,W.H. Taylor Elementary,51710000213,R10,R10D - West Norfolk,NORFOLK CITY,3130,2525,807,R10,NORFOLK CITY,R10D - West Norfolk,807,-76.3314425914841,36.8610979156775,-76.2958310002726,36.8800269991487
892246,111 - Limestone,Limestone,51153000111,R04,R04D - HD 22,PRINCE WILLIAM,4395,2619,805,R04,PRINCE WILLIAM,R04D - HD 22,805,-77.6168080003658,38.7645800006402,-77.5586189999145,38.7998469998329
948800,311 - Swans Creek,Swans Creek,51153000311,R04,R04B - Dumfries,PRINCE WILLIAM,3134,1926,808,R04,PRINCE WILLIAM,R04B - Dumfries,808,-77.3122669998777,38.5303688743158,-77.2757229996222,38.5785539995037
297440,701 - Seventh Ward First Precinct,Seventh Ward First Precinct,51730000701,R11,R11D - HD 82,PETERSBURG CITY,3538,2704,801,R11,PETERSBURG CITY,R11D - HD 82,801,-77.4549183243389,37.1651024145261,-77.4005963079794,37.2258314274664
297705,079 - Precinct 79,PRECINCT 79,51810000079,R10,R10J - East Norfolk,VIRGINIA BEACH CITY,3656,2893,800,R10,VIRGINIA BEACH CITY,R10J - East Norfolk,800,-76.1647308299789,36.8224846586436,-76.1377931959794,36.8325347745576
295931,615 - Woodley,WOODLEY,51059000615,R04,R04I - Woodbridge,FAIRFAX,3419,2428,803,R04,FAIRFAX,R04I - Woodbridge,803,-77.1202413110458,38.7140967454688,-77.0888009049223,38.7392342514498
296923,104 - Massaponax High,Massaponax High (104),51177000104,R05,R05C - HD 66,SPOTSYLVANIA,4592,3347,804,R05,SPOTSYLVANIA,R05C - HD 66,804,-77.5359014076764,38.1387926144879,-77.3743247693732,38.238539638805
297528,703 - Seven Hundred Three,Seven Hundred Three,51760000703,R06,R06A - Downtown,RICHMOND CITY,2658,2276,798,R06,RICHMOND CITY,R06A - Downtown,798,-77.4120748917467,37.5239717525261,-77.3855154960925,37.5440320610049
2302170,712 - Stone Hill,STONE HILL,51107000712,R03,R03G - South Riding,LOUDOUN,2647,1973,800,R03,LOUDOUN,R03G - South Riding,800,-77.5169285513962,38.9619333892676,-77.5029606919592,38.9791643396472
297518,510 - Five Hundred Ten,Five Hundred Ten,51760000510,R07,R07D - Rocketts Landing,RICHMOND CITY,2796,2338,800,R07,RICHMOND CITY,R07D - Rocketts Landing,800,-77.4724039343262,37.5053204656696,-77.4485334505406,37.5232022499098
2257689,117 - Precinct 117,PRECINCT 117,51013000117,R01,R01G - Lee Heights,ARLINGTON,3470,2359,801,R01,ARLINGTON,R01G - Lee Heights,801,-77.1635540001862,38.8789130000863,-77.1395070001423,38.8947770002227
1824845,215 - Saunders,Rosa Parks,51153000215,R04,R04A - Dale City,PRINCE WILLIAM,3074,1816,797,R04,PRINCE WILLIAM,R04A - Dale City,797,-77.4025529994667,38.6509810000498,-77.3770700002202,38.6721739993957
296221,205 - Central Gardens,Central Gardens,51087000205,R06,R06C - Highland Park,HENRICO,3040,2257,795,R06,HENRICO,R06C - Highland Park,795,-77.4116864638111,37.5493525295712,-77.3814720011323,37.5653349993467
297681,055 - Precinct 55,PRECINCT 55,51810000055,R10,R10C - HD 97,VIRGINIA BEACH CITY,4475,3401,799,R10,VIRGINIA BEACH CITY,R10C - HD 97,799,-76.0859301308607,36.7920115770428,-76.0547540090938,36.8164840791217
295970,801 - Burke #1,BURKE #1,51059000801,R04,R04H - West Springfield,FAIRFAX,3059,2082,788,R04,FAIRFAX,R04H - West Springfield,788,-77.2542519357234,38.7751685111821,-77.233205609664,38.793987758012
296433,703 - Rolling Ridge,ROLLING RIDGE,51107000703,R03,R03H - Sterling,LOUDOUN,3167,2431,792,R03,LOUDOUN,R03H - Sterling,792,-77.392474193033,39.0068918329481,-77.3712887242243,39.0214165209963
2298721,401 - Charlottesville High School,CHS,51540000401,R14,R14B - NE Charlottesville,CHARLOTTESVILLE CITY,3979,2843,792,R14,CHARLOTTESVILLE CITY,R14B - NE Charlottesville,792,-78.4889365064177,38.0345345365745,-78.4463638422218,38.0705326266073
297607,302 - John F Kennedy,JOHN F KENNEDY,51800000302,R09,R09C - HD 89,SUFFOLK CITY,3046,2196,786,R09,SUFFOLK CITY,R09C - HD 89,786,-76.5671510259461,36.6718047269703,-76.4633999962056,36.7704673659088
297292,101 - First Ward First Precinct,Ward I Precinct 1,51680000101,R13,R13E - Lynchburg,LYNCHBURG CITY,5143,3919,800,R13,LYNCHBURG CITY,R13E - Lynchburg,800,-79.254390774963,37.3748547845048,-79.1963077370877,37.4219118040287
297601,105 - Harbourview,HARBOURVIEW,51800000105,R09,R09B - HD 84,SUFFOLK CITY,4379,2935,783,R09,SUFFOLK CITY,R09B - HD 84,783,-76.4628540010742,36.8622623851805,-76.4230820491823,36.9067208762291
296715,505 - Lake Ridge,Lake Ridge,51153000505,R04,R04F - Lake Ridge,PRINCE WILLIAM,3654,2488,796,R04,PRINCE WILLIAM,R04F - Lake Ridge,796,-77.3196330001546,38.688469999567,-77.2970230000363,38.708081999757
297314,004 - Haydon,Haydon,51683000004,R03,R03E - Manassas,MANASSAS CITY,3931,2749,782,R03,MANASSAS CITY,R03E - Manassas,782,-77.5031070230274,38.7521464725973,-77.4733041971579,38.7778304309832
2257699,105 - Precinct 105,PRECINCT 105,51013000105,R01,R01D - Barcroft,ARLINGTON,3105,2334,778,R01,ARLINGTON,R01D - Barcroft,778,-77.1201089999843,38.8562210003361,-77.0982939999093,38.8700590003324
295839,301 - Chain Bridge,CHAIN BRIDGE,51059000301,R02,R02G - McLean,FAIRFAX,4023,2617,779,R02,FAIRFAX,R02G - McLean,779,-77.1863022923492,38.9304143641281,-77.1211611086416,38.952051466981
297501,307 - Three Hundred Seven,Three Hundred Seven,51760000307,R06,R06C - Highland Park,RICHMOND CITY,3566,2716,780,R06,RICHMOND CITY,R06C - Highland Park,780,-77.4699175269772,37.5701277176112,-77.4451078132395,37.5891302669466
295888,427 - Island Creek,ISLAND CREEK,51059000427,R04,R04G - Franconia,FAIRFAX,3054,2149,789,R04,FAIRFAX,R04G - Franconia,789,-77.1853392372792,38.7391109330952,-77.1639093521531,38.7651906400873
2302154,738 - Jones Branch,JONES BRANCH,51059000738,R02,R02I - Vienna,FAIRFAX,2734,2506,779,R02,FAIRFAX,R02I - Vienna,779,-77.2330393584544,38.9207317832446,-77.2104657005793,38.9338263981327
331414,112 - Freedom,FREEDOM,51107000112,R03,R03G - South Riding,LOUDOUN,2807,1801,777,R03,LOUDOUN,R03G - South Riding,777,-77.5458665457856,38.9072214401364,-77.5254955444107,38.9268972662592
295861,325 - Hutchison,HUTCHISON,51059000325,R02,R02F - Herndon,FAIRFAX,2749,2193,776,R02,FAIRFAX,R02F - Herndon,776,-77.4228044728065,38.9565399734495,-77.4004547272024,38.9715741220089
297439,601 - Sixth Ward First Precinct,Sixth Ward First Precinct,51730000601,R11,R11D - HD 82,PETERSBURG CITY,3566,2846,778,R11,PETERSBURG CITY,R11D - HD 82,778,-77.4326883196707,37.198191422637,-77.4008653084912,37.232648429473
2228460,635 - Woodlawn #2,WOODLAWN #2,51059000635,R04,R04I - Woodbridge,FAIRFAX,3130,2667,772,R04,FAIRFAX,R04I - Woodbridge,772,-77.191168331496,38.7074084387321,-77.1219813109202,38.7485119525293
296679,108 - Victory,Victory,51153000108,R04,R04D - HD 22,PRINCE WILLIAM,3997,2575,780,R04,PRINCE WILLIAM,R04D - HD 22,780,-77.5711710003777,38.7234659995742,-77.5199015842195,38.7712300001356
296930,302 - Salem Library,Salem Library (302),51177000302,R05,R05B - HD 65,SPOTSYLVANIA,4683,3152,782,R05,SPOTSYLVANIA,R05B - HD 65,782,-77.5335384108811,38.2642416396363,-77.4920145378642,38.2958343155878
2302163,326 - Independence,INDEPENDENCE,51107000326,R03,R03C - HD 30,LOUDOUN,3633,2127,782,R03,LOUDOUN,R03C - HD 30,782,-77.6229673107894,38.9530428368411,-77.5437430685911,39.0305127268839
297327,106 - Reservoir,Reservoir,51700000106,R08,R08B - HD 69,NEWPORT NEWS CITY,3593,2914,781,R08,NEWPORT NEWS CITY,R08B - HD 69,781,-76.626864873473,37.0762847548578,-76.5501333340173,37.1755360827888
295799,113 - Canterbury,CANTERBURY,51059000113,R02,R02C - East Fairfax,FAIRFAX,3991,2319,770,R02,FAIRFAX,R02C - East Fairfax,770,-77.2660766475562,38.8105350666318,-77.2348263509979,38.8279867784442
296681,110 - Buckland Mills,Buckland Mills,51153000110,R03,R03B - HD 21,PRINCE WILLIAM,4109,2657,775,R03,PRINCE WILLIAM,R03B - HD 21,775,-77.6797350003914,38.7634179999239,-77.61248200052,38.8074529996407
2228451,210 - F.T. Day School,F. T. Day School,51510000210,R01,R01H - Shirlington,ALEXANDRIA CITY,2717,2449,775,R01,ALEXANDRIA CITY,R01H - Shirlington,775,-77.112425999515,38.8314789994283,-77.1031893708467,38.8379321957974
297129,302 - Johnson,Johnson,51540000302,R14,R14E - UV,CHARLOTTESVILLE CITY,3660,3288,760,R14,CHARLOTTESVILLE CITY,R14E - UV,760,-78.5237733698669,38.0168589520545,-78.4988809608175,38.0322745539028
297437,401 - Fourth Ward First Precinct,Fourth Ward First Precinct,51730000401,R11,R11D - HD 82,PETERSBURG CITY,3317,2765,770,R11,PETERSBURG CITY,R11D - HD 82,770,-77.4174403151397,37.2026234239316,-77.3802373027069,37.2397174989053
296211,110 - Longan,Longan,51087000110,R06,R06B - HD 57,HENRICO,4144,3012,773,R06,HENRICO,R06B - HD 57,773,-77.5605739998741,37.6328370000935,-77.5314419999261,37.6617930005282
297473,037 - Churchland Middle School,Churchland Middle School,51740000037,R09,R09E - West Portsmouth,PORTSMOUTH CITY,3484,2516,776,R09,PORTSMOUTH CITY,R09E - West Portsmouth,776,-76.3999203687868,36.8636293745908,-76.3738147361363,36.8898640213085
297250,107 - Lindsay,Lindsay,51650000107,R08,R08A - Hampton,HAMPTON CITY,2766,2053,770,R08,HAMPTON CITY,R08A - Hampton,770,-76.4172275041885,36.9982851753191,-76.3771790996527,37.0318788892179
295857,321 - Clearview,CLEARVIEW,51059000321,R02,R02H - Reston,FAIRFAX,4290,2535,768,R02,FAIRFAX,R02H - Reston,768,-77.4009841825528,38.9813039545493,-77.3709655606907,39.0142734919058
2302178,825 - Waxpool,WAXPOOL,51107000825,R03,R03D - Leesburg,LOUDOUN,3041,1831,774,R03,LOUDOUN,R03D - Leesburg,774,-77.5759876456586,38.9875383422876,-77.5229200044225,39.0412131507529
297702,076 - Precinct 76,PRECINCT 76,51810000076,R10,R10C - HD 97,VIRGINIA BEACH CITY,4047,3446,763,R10,VIRGINIA BEACH CITY,R10C - HD 97,763,-76.1273099922594,36.8323580526275,-76.0970196650582,36.843377709242
295877,415 - Crestwood,CRESTWOOD,51059000415,R04,R04H - West Springfield,FAIRFAX,3042,2082,774,R04,FAIRFAX,R04H - West Springfield,774,-77.2187990220254,38.775131087366,-77.1891889907855,38.793958139549
296217,501 - Adams,Adams,51087000501,R07,R07A - East,HENRICO,2886,2205,771,R07,HENRICO,R07A - East,771,-77.3961572156293,37.529105253347,-77.363593252444,37.5615239992646
297522,606 - Six Hundred Six,Six Hundred Six,51760000606,R06,R06C - Highland Park,RICHMOND CITY,2710,2223,768,R06,RICHMOND CITY,R06C - Highland Park,768,-77.4270439828567,37.5692377113675,-77.4106611950178,37.5822385884586
295675,205 - Falling Creek,Falling Creek,51041000205,R07,R07E - North Chesterfield,CHESTERFIELD,3979,2858,768,R07,CHESTERFIELD,R07E - North Chesterfield,768,-77.4865082182105,37.4302226817058,-77.4523443393345,37.4640740052249
297126,201 - Carver,Carver,51540000201,R14,R14B - NE Charlottesville,CHARLOTTESVILLE CITY,3409,2966,757,R14,CHARLOTTESVILLE CITY,R14B - NE Charlottesville,757,-78.5004456957867,38.0303369230012,-78.4748090226429,38.0463844342514
1866924,019 - Forest Park,Forest Park,51770000019,R12,R12C - South Roanoke,ROANOKE CITY,3743,3040,762,R12,ROANOKE CITY,R12C - South Roanoke,762,-80.0102688741205,37.2724515766362,-79.9609722265982,37.296948103364
296942,602 - Smith Station Elementary,Smith Station Elementary (602),51177000602,R05,R05D - SW,SPOTSYLVANIA,4405,2967,760,R05,SPOTSYLVANIA,R05D - SW,760,-77.5835664253852,38.2487246341407,-77.5553214174572,38.2784066409869
296422,502 - East Leesburg,EAST LEESBURG,51107000502,R03,R03D - Leesburg,LOUDOUN,3918,2915,761,R03,LOUDOUN,R03D - Leesburg,761,-77.5554235648882,39.1044788928067,-77.5377199553409,39.125907447504
1992184,309 - Olympus Condo,Olympus Condo,51510000309,R01,R01I - Westend Alexandria,ALEXANDRIA CITY,2812,2516,754,R01,ALEXANDRIA CITY,R01I - Westend Alexandria,754,-77.1436799998271,38.807532000126,-77.1292519999454,38.8158130002005
296394,108 - Mercer,MERCER,51107000108,R03,R03G - South Riding,LOUDOUN,3134,1872,763,R03,LOUDOUN,R03G - South Riding,763,-77.5564559600166,38.9098086672907,-77.5405951930708,38.9339257428413
295904,518 - Columbia,COLUMBIA,51059000518,R02,R02A - Annandale,FAIRFAX,3164,2351,763,R02,FAIRFAX,R02A - Annandale,763,-77.2108284609522,38.8271012703401,-77.1779160924722,38.8463058062139
297162,031 - Carver School,Carver School,51550000031,R09,R09F - East Portsmouth,CHESAPEAKE CITY,3835,3107,764,R09,CHESAPEAKE CITY,R09F - East Portsmouth,764,-76.2855733832833,36.7747089605686,-76.2516683710244,36.804017418925
297426,506 - Ocean View Golf Course,Ocean View Center,51710000506,R10,R10G - North Norfolk,NORFOLK CITY,4368,3642,754,R10,NORFOLK CITY,R10G - North Norfolk,754,-76.2604109999483,36.9362999996538,-76.2350317639535,36.9525350006898
295673,203 - Bird,Bird,51041000203,R07,R07F - South Chesterfield,CHESTERFIELD,3702,2604,758,R07,CHESTERFIELD,R07F - South Chesterfield,758,-77.5157978105071,37.3813383956997,-77.4744550917504,37.419379287671
297340,112 - Knollwood Meadows,Knollwood Meadows,51700000112,R08,R08E - Nicewood,NEWPORT NEWS CITY,4328,2837,759,R08,NEWPORT NEWS CITY,R08E - Nicewood,759,-76.5863515482222,37.1142930913191,-76.5453973331944,37.1434937730845
297513,503 - Five Hundred Three,Five Hundred Three,51760000503,R06,R06A - Downtown,RICHMOND CITY,2813,2338,754,R06,RICHMOND CITY,R06A - Downtown,754,-77.4955752377666,37.5275651385316,-77.4592374107502,37.5489770407661
297103,203 - Charles Barrett Center,Charles Barrett,51510000203,R01,R01F - Crystal City,ALEXANDRIA CITY,2930,2536,758,R01,ALEXANDRIA CITY,R01F - Crystal City,758,-77.0857039998113,38.8304549998935,-77.0724450000666,38.8439650002471
296731,701 - Belmont,Belmont,51153000701,R04,R04I - Woodbridge,PRINCE WILLIAM,3949,3091,763,R04,PRINCE WILLIAM,R04I - Woodbridge,763,-77.2610490005915,38.6363320070024,-77.2202944213556,38.6670946813747
296011,921 - Deer Park,DEER PARK,51059000921,R02,R02B - Centreville,FAIRFAX,3598,2176,759,R02,FAIRFAX,R02B - Centreville,759,-77.4795904296497,38.8431018934764,-77.4523519687262,38.867657194412
1854143,003 - Precinct Three,Precinct 3,51685000003,R03,R03E - Manassas,MANASSAS PARK CITY,3137,2319,758,R03,MANASSAS PARK CITY,R03E - Manassas,758,-77.4539628196088,38.7496270003036,-77.4193983406252,38.7834729996529
297315,005 - Baldwin,Baldwin,51683000005,R03,R03E - Manassas,MANASSAS CITY,3983,3182,754,R03,MANASSAS CITY,R03E - Manassas,754,-77.477377941987,38.7408546065121,-77.4477071801423,38.7701158508641
297539,812 - Eight Hundred Twelve,Eight Hundred Twelve,51760000812,R07,R07G - South Garden,RICHMOND CITY,3038,2289,755,R07,RICHMOND CITY,R07G - South Garden,755,-77.5071802522236,37.455657224338,-77.4502321485732,37.4797557557453
296973,703 - Hampton,Hampton,51179000703,R04,R04E - HD 64,STAFFORD,4330,2451,756,R04,STAFFORD,R04E - HD 64,756,-77.4317433422974,38.4218940766839,-77.4079853428568,38.4685930769541
2302153,220 - Mirror Ridge,MIRROR RIDGE,51107000220,R03,R03H - Sterling,LOUDOUN,3163,2136,755,R03,LOUDOUN,R03H - Sterling,755,-77.391723291287,39.0192811052368,-77.3747409570477,39.0370862788341
295899,512 - Sleepy Hollow,SLEEPY HOLLOW,51059000512,R02,R02A - Annandale,FAIRFAX,3432,2291,753,R02,FAIRFAX,R02A - Annandale,753,-77.1971769450392,38.8464472710848,-77.1558643315227,38.8723552545084
2355399,222 - Turner,Turner,51041000222,R07,R07E - North Chesterfield,CHESTERFIELD,3239,2441,754,R07,CHESTERFIELD,R07E - North Chesterfield,754,-77.5329464633297,37.4498192774798,-77.4956888521922,37.4677689949162
296713,410 - Mountain View,Mountain View,51153000410,R03,R03B - HD 21,PRINCE WILLIAM,4461,2469,758,R03,PRINCE WILLIAM,R03B - HD 21,758,-77.6377310003131,38.8150889996987,-77.6053950008008,38.8514219998548
297393,218 - Willard,Willard,51710000218,R10,R10D - West Norfolk,NORFOLK CITY,3757,2605,755,R10,NORFOLK CITY,R10D - West Norfolk,755,-76.2912647253428,36.873803673181,-76.2557355006598,36.9039921374102
2257751,135 - Precinct 135,PRECINCT 135,51013000135,R01,R01G - Lee Heights,ARLINGTON,3447,1947,748,R01,ARLINGTON,R01G - Lee Heights,748,-77.1394239365212,38.9080780001783,-77.1164800002725,38.9342996143681
297628,002 - Precinct 2,PRECINCT 2,51810000002,R10,R10A - Virginia Beach,VIRGINIA BEACH CITY,4672,3970,748,R10,VIRGINIA BEACH CITY,R10A - Virginia Beach,748,-75.9956041301904,36.8376814740174,-75.9730500733018,36.8586430711018
2257750,131 - Precinct 131,PRECINCT 131,51013000131,R01,R01G - Lee Heights,ARLINGTON,3106,1930,751,R01,ARLINGTON,R01G - Lee Heights,751,-77.1440320001796,38.8836759999071,-77.1244800000358,38.8963960001082
1569616,512 - York,York,51153000512,R04,R04F - Lake Ridge,PRINCE WILLIAM,2714,2144,753,R04,PRINCE WILLIAM,R04F - Lake Ridge,753,-77.307248000096,38.6361749994852,-77.2654609997526,38.6787210006195
2355393,221 - Oxbridge,Oxbridge,51041000221,R07,R07F - South Chesterfield,CHESTERFIELD,4529,3069,754,R07,CHESTERFIELD,R07F - South Chesterfield,754,-77.6006215033996,37.4108818255275,-77.5440414053852,37.4490768256281
1071019,623 - Weller,WELLER,51107000623,R03,R03A - Ashburn,LOUDOUN,4061,2726,742,R03,LOUDOUN,R03A - Ashburn,742,-77.4766180364269,39.0388646230489,-77.44946169769,39.0614132558683
2334683,310 - Del Pepper Center,Del Pepper Center,51510000310,R01,R01H - Shirlington,ALEXANDRIA CITY,3163,2970,746,R01,ALEXANDRIA CITY,R01H - Shirlington,746,-77.1268789995111,38.8241179999478,-77.1096909995807,38.834945549586
296400,210 - Cascades,CASCADES,51107000210,R03,R03H - Sterling,LOUDOUN,3821,2559,745,R03,LOUDOUN,R03H - Sterling,745,-77.4074640019884,39.0250527789917,-77.3832461217161,39.0467609219468
2257677,123 - Precinct 123,PRECINCT 123,51013000123,R01,R01G - Lee Heights,ARLINGTON,3105,2201,744,R01,ARLINGTON,R01G - Lee Heights,744,-77.1516479998034,38.8791929997786,-77.1186929999749,38.8871830003347
2355395,115 - Cresthill,Cresthill,51041000115,R07,R07C - HD 75,CHESTERFIELD,4208,2767,749,R07,CHESTERFIELD,R07C - HD 75,749,-77.4461888665137,37.2718124751123,-77.3892638250413,37.3429457019491
296278,506 - Dorey,Dorey,51087000506,R07,R07A - East,HENRICO,3539,2290,751,R07,HENRICO,R07A - East,751,-77.3531560002456,37.4259549993734,-77.2822560011192,37.4809099991778
296252,113 - Springfield,Springfield,51087000113,R06,R06B - HD 57,HENRICO,3956,2886,744,R06,HENRICO,R06B - HD 57,744,-77.5830951404411,37.6408080005892,-77.5591390013949,37.6766029993902
297504,402 - Four Hundred Two,Four Hundred Two,51760000402,R07,R07G - South Garden,RICHMOND CITY,3467,2591,741,R07,RICHMOND CITY,R07G - South Garden,741,-77.5079128696603,37.5142763316599,-77.4693078790214,37.5397416229978
296230,216 - Longdale,Longdale,51087000216,R06,R06D - Mechanicsville,HENRICO,3296,2505,747,R06,HENRICO,R06D - Mechanicsville,747,-77.4897310006491,37.6379779993444,-77.4506310014577,37.6676109993393
297472,036 - Churchland High School,Churchland High School,51740000036,R09,R09E - West Portsmouth,PORTSMOUTH CITY,4026,2789,745,R09,PORTSMOUTH CITY,R09E - West Portsmouth,745,-76.3787212114499,36.8493447210152,-76.3389616183924,36.8860136758786
297655,029 - Precinct 29,PRECINCT 29,51810000029,R10,R10I - South,VIRGINIA BEACH CITY,4092,3100,737,R10,VIRGINIA BEACH CITY,R10I - South,737,-76.0981200177379,36.8001430275819,-76.0803993923026,36.8206151988923
296201,101 - Coalpit,Coalpit,51087000101,R06,R06B - HD 57,HENRICO,4322,2630,743,R06,HENRICO,R06B - HD 57,743,-77.568285386208,37.6490309987902,-77.5364439999895,37.68623097791
296710,103 - Glenkirk,Glenkirk,51153000103,R04,R04D - HD 22,PRINCE WILLIAM,3930,2232,742,R04,PRINCE WILLIAM,R04D - HD 22,742,-77.6286369998574,38.7609419472665,-77.6062499993219,38.7953430000943
297582,017 - Lee-Hi,Lee Hi,51770000017,R12,R12C - South Roanoke,ROANOKE CITY,3823,3007,740,R12,ROANOKE CITY,R12C - South Roanoke,740,-80.0184264410796,37.2522124597006,-79.9764759716091,37.2798459255898
296435,705 - Forest Grove,FOREST GROVE,51107000705,R03,R03H - Sterling,LOUDOUN,3265,2350,744,R03,LOUDOUN,R03H - Sterling,744,-77.4179279826597,38.9826574223706,-77.3911097509311,39.0018227776381
297394,301 - Ballentine,Ballentine,51710000301,R10,R10E - Norfolk Central,NORFOLK CITY,3064,2376,739,R10,NORFOLK CITY,R10E - Norfolk Central,739,-76.2677020295383,36.8657162595447,-76.248752000336,36.882590722681
2257687,605 - Melchers,Melchers,51179000605,R05,R05B - HD 65,STAFFORD,4684,3355,734,R05,STAFFORD,R05B - HD 65,734,-77.554321341916,38.3086310765402,-77.4663953414443,38.3615570765786
296436,808 - Stone Bridge,STONE BRIDGE,51107000808,R03,R03A - Ashburn,LOUDOUN,3935,2254,735,R03,LOUDOUN,R03A - Ashburn,735,-77.5205757671453,39.0434722971438,-77.48743330868,39.0636850273825
2257713,701 - Park Ridge,Park Ridge,51179000701,R04,R04E - HD 64,STAFFORD,4298,2687,741,R04,STAFFORD,R04E - HD 64,741,-77.4645373424674,38.4562130769046,-77.4306923430594,38.4737660772504
297537,811 - Eight Hundred Eleven,Eight Hundred Eleven,51760000811,R07,R07D - Rocketts Landing,RICHMOND CITY,2731,2395,733,R07,RICHMOND CITY,R07D - Rocketts Landing,733,-77.4713968761803,37.4833280789121,-77.4457802651118,37.5181365078694
295951,709 - Mosby #1,MOSBY #1,51059000709,R02,R02C - East Fairfax,FAIRFAX,2854,2199,733,R02,FAIRFAX,R02C - East Fairfax,733,-77.2925915209082,38.866318208991,-77.2722313666904,38.8761266160327
2274049,611 - Six Hundred Eleven,Six Hundred Eleven,51760000611,R07,R07D - Rocketts Landing,RICHMOND CITY,2344,2180,736,R07,RICHMOND CITY,R07D - Rocketts Landing,736,-77.4515803437449,37.5173036066785,-77.4370603968023,37.5270735839905
2257693,112 - Precinct 112,PRECINCT 112,51013000112,R01,R01H - Shirlington,ARLINGTON,2779,2331,729,R01,ARLINGTON,R01H - Shirlington,729,-77.0976719345413,38.8273569998875,-77.0846209998879,38.84043999972
297100,109 - Fire Department Headquarters,Fire Department Headquarters,51510000109,R01,R01A - Alexandria,ALEXANDRIA CITY,2770,2311,727,R01,ALEXANDRIA CITY,R01A - Alexandria,727,-77.0496130001905,38.8141529997474,-77.0434079996549,38.8412567415148
295945,535 - Fort Buffalo,FORT BUFFALO,51059000535,R02,R02E - Falls Church,FAIRFAX,2362,1853,735,R02,FAIRFAX,R02E - Falls Church,735,-77.1797602448173,38.868890846039,-77.1537133290496,38.879330708967
296013,924 - Spindle,SPINDLE,51059000924,R02,R02B - Centreville,FAIRFAX,2648,2273,733,R02,FAIRFAX,R02B - Centreville,733,-77.4498594195956,38.8329678802918,-77.4310538278247,38.8464135207005
295821,214 - Vienna #2,VIENNA #2,51059000214,R02,R02I - Vienna,FAIRFAX,3642,2190,738,R02,FAIRFAX,R02I - Vienna,738,-77.2760053940149,38.8864551899241,-77.2410854355036,38.9218527471968
1706907,404 - Booker T Washington,BOOKER T WASHINGTON,51800000404,R09,R09B - HD 84,SUFFOLK CITY,2624,2032,722,R09,SUFFOLK CITY,R09B - HD 84,722,-76.6037180365477,36.7040713475247,-76.5553060229678,36.731200354142
295712,503 - Midlothian,Midlothian,51041000503,R07,R07B - HD 73,CHESTERFIELD,4716,3354,726,R07,CHESTERFIELD,R07B - HD 73,726,-77.7630740745633,37.471916182575,-77.6517270722399,37.5318561503291
296256,309 - Rivers Edge,Rivers Edge,51087000309,R06,R06B - HD 57,HENRICO,3558,2033,725,R06,HENRICO,R06B - HD 57,725,-77.6160099999494,37.673151000924,-77.5668633872492,37.7098829122857
295357,105 - Dunlora,Dunlora,51003000105,R14,R14B - NE Charlottesville,ALBEMARLE,3886,2785,717,R14,ALBEMARLE,R14B - NE Charlottesville,717,-78.4724380793506,38.0457225459761,-78.4394706782796,38.0882545683209
295862,327 - Sugarland,SUGARLAND,51059000327,R02,R02H - Reston,FAIRFAX,3847,2152,720,R02,FAIRFAX,R02H - Reston,720,-77.3840886695874,38.9817110793528,-77.3501337325583,39.0140937266091
297260,117 - Kecoughtan,Kecoughtan,51650000117,R08,R08C - HD 86,HAMPTON CITY,3154,2429,716,R08,HAMPTON CITY,R08C - HD 86,716,-76.3224433183751,37.0434438148477,-76.3002870132894,37.0595023065564
297335,203 - Charles,Charles,51700000203,R08,R08E - Nicewood,NEWPORT NEWS CITY,4406,2843,723,R08,NEWPORT NEWS CITY,R08E - Nicewood,723,-76.5457143333868,37.0930470833696,-76.5122643348873,37.1145740832929
2355398,322 - Hensley,Hensley,51041000322,R07,R07F - South Chesterfield,CHESTERFIELD,4877,2792,728,R07,CHESTERFIELD,R07F - South Chesterfield,728,-77.6799779856926,37.3500556076669,-77.6154657134137,37.3845544138068
296203,103 - Glen Allen,Glen Allen,51087000103,R06,R06E - Hanover,HENRICO,4749,2964,726,R06,HENRICO,R06E - Hanover,726,-77.542640543785,37.662058000007,-77.499213146071,37.7017178873209
297498,304 - Three Hundred Four,Three Hundred Four,51760000304,R06,R06C - Highland Park,RICHMOND CITY,2475,2003,715,R06,RICHMOND CITY,R06C - Highland Park,715,-77.4338591757272,37.5631801622182,-77.4211084697197,37.582214694385
2257716,129 - Precinct 129,PRECINCT 129,51013000129,R01,R01C - Ballston,ARLINGTON,3027,1931,715,R01,ARLINGTON,R01C - Ballston,715,-77.1554280000262,38.8730979996806,-77.1276860001483,38.8846730000146
295982,431 - West Springfield,WEST SPRINGFIELD,51059000431,R04,R04H - West Springfield,FAIRFAX,3270,2071,720,R04,FAIRFAX,R04H - West Springfield,720,-77.2319904460028,38.7554991797364,-77.2028864339658,38.7759702797011
295974,812 - Valley,VALLEY,51059000812,R04,R04H - West Springfield,FAIRFAX,3218,2034,719,R04,FAIRFAX,R04H - West Springfield,719,-77.2459943719001,38.7575518953375,-77.2172776828709,38.7792760374901
296442,814 - Newton - Lee,NEWTON-LEE,51107000814,R03,R03D - Leesburg,LOUDOUN,3860,2143,718,R03,LOUDOUN,R03D - Leesburg,718,-77.5194172153133,39.0520634023168,-77.4816835060583,39.0860284868573
297409,404 - Campostella,Campostella,51710000404,R09,R09F - East Portsmouth,NORFOLK CITY,2805,2249,715,R09,NORFOLK CITY,R09F - East Portsmouth,715,-76.2746905654276,36.8208499121009,-76.2451047640308,36.8385514091461
297275,213 - Phillips,Phillips,51650000213,R08,R08C - HD 86,HAMPTON CITY,4436,2951,710,R08,HAMPTON CITY,R08C - HD 86,710,-76.3306250011982,37.0565669456352,-76.3005189466177,37.0980743737589
1594356,820 - Belmont Station,BELMONT STATION,51107000820,R03,R03A - Ashburn,LOUDOUN,3008,1877,716,R03,LOUDOUN,R03A - Ashburn,716,-77.5111057579628,39.044001394805,-77.48062853986,39.0687573337348
295880,419 - Lane,LANE,51059000419,R04,R04G - Franconia,FAIRFAX,2721,1953,703,R04,FAIRFAX,R04G - Franconia,703,-77.1745777956713,38.7526187514888,-77.1553973234576,38.7674857261632
295831,226 - Wolftrap,WOLFTRAP,51059000226,R02,R02I - Vienna,FAIRFAX,3703,2053,713,R02,FAIRFAX,R02I - Vienna,713,-77.2985865285681,38.9101448649861,-77.2576620932555,38.9452816817835
295939,806 - Sydenstricker,SYDENSTRICKER,51059000806,R04,R04H - West Springfield,FAIRFAX,3409,2018,708,R04,FAIRFAX,R04H - West Springfield,708,-77.2484733178424,38.7338768985906,-77.2209608491977,38.7575064512654
295864,329 - Seneca,SENECA,51059000329,R02,R02H - Reston,FAIRFAX,3805,2138,706,R02,FAIRFAX,R02H - Reston,706,-77.3713184737316,38.9893260986203,-77.3116000394068,39.057685928418
295849,312 - Longfellow,LONGFELLOW,51059000312,R02,R02G - McLean,FAIRFAX,2870,1810,712,R02,FAIRFAX,R02G - McLean,712,-77.1885340605529,38.8997851284438,-77.1638944347295,38.9207785112219
295717,508 - Belgrade,Belgrade,51041000508,R07,R07H - North Midlothian,CHESTERFIELD,4140,3097,719,R07,CHESTERFIELD,R07H - North Midlothian,719,-77.673111267254,37.502409951974,-77.6029590491263,37.5332629218852
296733,703 - Lynn,Lynn,51153000703,R04,R04I - Woodbridge,PRINCE WILLIAM,2824,2309,712,R04,PRINCE WILLIAM,R04I - Woodbridge,712,-77.2766640001536,38.6493499995275,-77.246896000171,38.6635710004516
2228461,631 - Pohick Creek,POHICK CREEK,51059000631,R04,R04I - Woodbridge,FAIRFAX,2587,1847,706,R04,FAIRFAX,R04I - Woodbridge,706,-77.2083054939678,38.7073289473985,-77.1799511170522,38.722841743144
295795,108 - Kings Park,KINGS PARK,51059000108,R02,R02C - East Fairfax,FAIRFAX,3345,2148,708,R02,FAIRFAX,R02C - East Fairfax,708,-77.2565035018976,38.7922145024808,-77.2186970497659,38.8112154675211
296393,107 - Little River,LITTLE RIVER,51107000107,R03,R03G - South Riding,LOUDOUN,3395,1910,707,R03,LOUDOUN,R03G - South Riding,707,-77.5149520933795,38.8920515892649,-77.4850461265423,38.9149425457352
296682,114 - Bristow Run,Bristow Run,51153000114,R04,R04D - HD 22,PRINCE WILLIAM,4146,2334,715,R04,PRINCE WILLIAM,R04D - HD 22,715,-77.6176570008357,38.7346180005416,-77.5711710003777,38.7640249999998
1824855,712 - Leesylvania,Leesylvania,51153000712,R04,R04B - Dumfries,PRINCE WILLIAM,3207,1939,708,R04,PRINCE WILLIAM,R04B - Dumfries,708,-77.2854310003712,38.5829018566312,-77.2464181839259,38.6098161407972
296706,405 - Ben Lomond,Ben Lomond,51153000405,R03,R03B - HD 21,PRINCE WILLIAM,3064,2378,713,R03,PRINCE WILLIAM,R03B - HD 21,713,-77.5196759992854,38.7888350000235,-77.4891755336813,38.8100255549666
297325,104 - McIntosh,McIntosh,51700000104,R08,R08E - Nicewood,NEWPORT NEWS CITY,3169,2419,710,R08,NEWPORT NEWS CITY,R08E - Nicewood,710,-76.5453793345494,37.1351770828618,-76.5151023347537,37.1731850835622
2228470,310 - Pw Forest Park,PW Forest Park,51153000310,R04,R04B - Dumfries,PRINCE WILLIAM,3019,2009,709,R04,PRINCE WILLIAM,R04B - Dumfries,709,-77.5794279991607,38.5211889997731,-77.3227500005786,38.6441290001514
297695,069 - Precinct 69,PRECINCT 69,51810000069,R10,R10J - East Norfolk,VIRGINIA BEACH CITY,3503,2693,701,R10,VIRGINIA BEACH CITY,R10J - East Norfolk,701,-76.1987483571255,36.8687545815783,-76.1718196999906,36.8996078969473
2257707,214 - Virginia Zoo,Virginia Zoo,51710000214,R10,R10D - West Norfolk,NORFOLK CITY,3117,2434,701,R10,NORFOLK CITY,R10D - West Norfolk,701,-76.2947459998011,36.8800370000233,-76.2756727918222,36.8906080388824
297699,073 - Precinct 73,PRECINCT 73,51810000073,R10,R10I - South,VIRGINIA BEACH CITY,3511,2644,702,R10,VIRGINIA BEACH CITY,R10I - South,702,-76.1143208652907,36.8002523615832,-76.0981180980381,36.8158184075125
296951,201 - Rock Hill,Rock Hill,51179000201,R04,R04E - HD 64,STAFFORD,4589,2695,698,R04,STAFFORD,R04E - HD 64,698,-77.5047113422597,38.4509100771159,-77.4607803418108,38.4807330766215
296965,503 - Drew,Drew,51179000503,R05,R05B - HD 65,STAFFORD,4491,3042,708,R05,STAFFORD,R05B - HD 65,708,-77.4851013414912,38.3230190768755,-77.4078683408843,38.3976220772139
297305,401 - Fourth Ward First Precinct,Ward IV Precinct 1,51680000401,R13,R13E - Lynchburg,LYNCHBURG CITY,5672,4214,703,R13,LYNCHBURG CITY,R13E - Lynchburg,703,-79.2579678035423,37.3467703870933,-79.2000237386348,37.387639791592
295685,303 - Matoaca,Matoaca,51041000303,R11,R11E - Colonial Heights / Chesterfield,CHESTERFIELD,4760,3174,699,R11,CHESTERFIELD,R11E - Colonial Heights / Chesterfield,699,-77.5718107742349,37.2167656182309,-77.4415969024618,37.269693208564
297666,040 - Precinct 40,PRECINCT 40,51810000040,R10,R10J - East Norfolk,VIRGINIA BEACH CITY,3831,3127,701,R10,VIRGINIA BEACH CITY,R10J - East Norfolk,701,-76.1893183696856,36.8291419990985,-76.1367017608755,36.8543380252056
295700,404 - Providence,Providence,51041000404,R07,R07E - North Chesterfield,CHESTERFIELD,3440,2326,699,R07,CHESTERFIELD,R07E - North Chesterfield,699,-77.5634526314391,37.4596725841519,-77.5357150746286,37.4884960695387
297562,008 - Lincoln Terrace,Lincoln Terrace,51770000008,R12,R12B - North Roanoke,ROANOKE CITY,3180,2619,698,R12,ROANOKE CITY,R12B - North Roanoke,698,-79.9643583964173,37.2732413897813,-79.9358921648758,37.293530836951
297488,204 - Two Hundred Four,Two Hundred Four,51760000204,R06,R06H - Westhampton,RICHMOND CITY,2240,1949,696,R06,RICHMOND CITY,R06H - Westhampton,696,-77.4719763739802,37.5512822443251,-77.4561081815603,37.5625128823528
296017,928 - Poplar Tree,POPLAR TREE,51059000928,R02,R02B - Centreville,FAIRFAX,3077,1633,692,R02,FAIRFAX,R02B - Centreville,692,-77.4328747129056,38.8464135207005,-77.4029113248571,38.8688444790789
297385,210 - Maury,Maury,51710000210,R10,R10D - West Norfolk,NORFOLK CITY,2901,2441,683,R10,NORFOLK CITY,R10D - West Norfolk,683,-76.3000250007722,36.8606040005693,-76.2835740002605,36.8721509993095
546530,091 - Precinct 91,PRECINCT 91,51810000091,R10,R10C - HD 97,VIRGINIA BEACH CITY,4463,3157,687,R10,VIRGINIA BEACH CITY,R10C - HD 97,687,-76.1461580887162,36.7968427862877,-76.1171630405265,36.8213428691953
2257735,133 - Precinct 133,PRECINCT 133,51013000133,R01,R01G - Lee Heights,ARLINGTON,3225,1795,687,R01,ARLINGTON,R01G - Lee Heights,687,-77.1545338448402,38.9018000001047,-77.1286369998272,38.9189850116625
296678,107 - Marsteller,Marsteller,51153000107,R04,R04D - HD 22,PRINCE WILLIAM,3878,2314,692,R04,PRINCE WILLIAM,R04D - HD 22,692,-77.5899679997629,38.7326099999596,-77.5597329998001,38.7533549995957
296933,402 - Germanna Campus,Germanna Campus (402),51177000402,R05,R05C - HD 66,SPOTSYLVANIA,4356,2906,690,R05,SPOTSYLVANIA,R05C - HD 66,690,-77.5074534002571,38.2195116304124,-77.4356543788724,38.2498456380091
2257727,405 - Hope,Hope,51179000405,R04,R04E - HD 64,STAFFORD,4625,2900,690,R04,STAFFORD,R04E - HD 64,690,-77.4104733420205,38.3988800772732,-77.3564339885784,38.4495110765148
297249,106 - Armstrong,Armstrong,51650000106,R08,R08A - Hampton,HAMPTON CITY,3358,2500,685,R08,HAMPTON CITY,R08A - Hampton,685,-76.3734566221509,36.9985561070148,-76.3407618283276,37.017165714164
297282,201 - Northwest,Northwest,51660000201,R12,R12A - Harrisonburg,HARRISONBURG CITY,4078,3234,679,R12,HARRISONBURG CITY,R12A - Harrisonburg,679,-78.8834778395394,38.4509546253225,-78.8489038285322,38.489525633016
296281,509 - Highland Springs,Highland Springs,51087000509,R07,R07A - East,HENRICO,2682,2097,688,R07,HENRICO,R07A - East,688,-77.3365939994059,37.5302739991969,-77.305008999556,37.549288999689
296438,810 - Cedar Lane,CEDAR LANE,51107000810,R03,R03A - Ashburn,LOUDOUN,3231,2055,688,R03,LOUDOUN,R03A - Ashburn,688,-77.5076790220222,39.0276800649269,-77.4847805387302,39.0460533957946
295952,710 - Pine Spring,PINE SPRING,51059000710,R02,R02G - McLean,FAIRFAX,2569,2069,680,R02,FAIRFAX,R02G - McLean,680,-77.2207252579296,38.8657072189372,-77.198913507061,38.8758225390777
296225,210 - Glen Lea,Glen Lea,51087000210,R06,R06C - Highland Park,HENRICO,2352,1762,682,R06,HENRICO,R06C - Highland Park,682,-77.4183529998751,37.5639321213096,-77.3338380004536,37.612524006118
297376,106 - Second Presbyterian,Second Presbyterian,51710000106,R10,R10D - West Norfolk,NORFOLK CITY,3987,3139,686,R10,NORFOLK CITY,R10D - West Norfolk,686,-76.3342323257686,36.9031804097769,-76.2702109998605,36.9658179997293
